{
  "type" : "FeatureCollection",
  "features" : [{"type":"Feature","id":1,"geometry":{"type":"Point","coordinates":[16.367020350000075,48.202224080000065]},"properties":{"OBJECTID":1,"SOURCE_ID":67,"TotalParcelWeightKG":0.29999999999999999,"NumParcelsToday":1,"ZONE_ID":8,"Join_Count":1,"District":1,"Address":"Elisabethstraße 10, 1010","Longitude":16.367020350000001,"Latitude":48.202224080000001,"Postal":1010,"City":"Vienna","NumHouseholds":1,"NumPeople":2,"NumParcelsToday_1":1,"TotalParcelWeightKG_1":0.29999999999999999}},{"type":"Feature","id":2,"geometry":{"type":"Point","coordinates":[16.364129960000071,48.202444940000078]},"properties":{"OBJECTID":2,"SOURCE_ID":68,"TotalParcelWeightKG":0.48999999999999999,"NumParcelsToday":1,"ZONE_ID":8,"Join_Count":1,"District":1,"Address":"Elisabethstraße 11/2, 1010","Longitude":16.36412996,"Latitude":48.202444939999999,"Postal":1010,"City":"Vienna","NumHouseholds":1,"NumPeople":2,"NumParcelsToday_1":1,"TotalParcelWeightKG_1":0.48999999999999999}},{"type":"Feature","id":3,"geometry":{"type":"Point","coordinates":[16.368043120000038,48.201996100000031]},"properties":{"OBJECTID":3,"SOURCE_ID":70,"TotalParcelWeightKG":0.77000000000000002,"NumParcelsToday":1,"ZONE_ID":8,"Join_Count":1,"District":1,"Address":"Elisabethstraße 6/4, 1010","Longitude":16.368043119999999,"Latitude":48.201996100000002,"Postal":1010,"City":"Vienna","NumHouseholds":1,"NumPeople":1,"NumParcelsToday_1":1,"TotalParcelWeightKG_1":0.77000000000000002}},{"type":"Feature","id":4,"geometry":{"type":"Point","coordinates":[16.363737890000039,48.202273390000073]},"properties":{"OBJECTID":4,"SOURCE_ID":71,"TotalParcelWeightKG":0.65000000000000002,"NumParcelsToday":1,"ZONE_ID":8,"Join_Count":1,"District":1,"Address":"Eschenbachgasse 7, 1010","Longitude":16.363737889999999,"Latitude":48.202273390000002,"Postal":1010,"City":"Vienna","NumHouseholds":1,"NumPeople":4,"NumParcelsToday_1":1,"TotalParcelWeightKG_1":0.65000000000000002}},{"type":"Feature","id":5,"geometry":{"type":"Point","coordinates":[16.36631914000003,48.200091710000038]},"properties":{"OBJECTID":5,"SOURCE_ID":92,"TotalParcelWeightKG":1.4299999999999999,"NumParcelsToday":1,"ZONE_ID":8,"Join_Count":1,"District":1,"Address":"Friedrichstraße 7, 1010","Longitude":16.366319140000002,"Latitude":48.200091710000002,"Postal":1010,"City":"Vienna","NumHouseholds":1,"NumPeople":4,"NumParcelsToday_1":1,"TotalParcelWeightKG_1":1.4299999999999999}},{"type":"Feature","id":6,"geometry":{"type":"Point","coordinates":[16.365227420000053,48.201625420000028]},"properties":{"OBJECTID":6,"SOURCE_ID":98,"TotalParcelWeightKG":0.67000000000000004,"NumParcelsToday":1,"ZONE_ID":8,"Join_Count":1,"District":1,"Address":"Gauermanngasse 1, 1010","Longitude":16.36522742,"Latitude":48.201625419999999,"Postal":1010,"City":"Vienna","NumHouseholds":1,"NumPeople":3,"NumParcelsToday_1":1,"TotalParcelWeightKG_1":0.67000000000000004}},{"type":"Feature","id":7,"geometry":{"type":"Point","coordinates":[16.367283450000059,48.201952320000032]},"properties":{"OBJECTID":7,"SOURCE_ID":221,"TotalParcelWeightKG":0.32000000000000001,"NumParcelsToday":1,"ZONE_ID":8,"Join_Count":1,"District":1,"Address":"Operngasse 16, 1010","Longitude":16.367283449999999,"Latitude":48.201952319999997,"Postal":1010,"City":"Vienna","NumHouseholds":1,"NumPeople":1,"NumParcelsToday_1":1,"TotalParcelWeightKG_1":0.32000000000000001}},{"type":"Feature","id":8,"geometry":{"type":"Point","coordinates":[16.367919680000057,48.201814460000037]},"properties":{"OBJECTID":8,"SOURCE_ID":222,"TotalParcelWeightKG":2.1200000000000001,"NumParcelsToday":1,"ZONE_ID":8,"Join_Count":1,"District":1,"Address":"Operngasse 5, 1010","Longitude":16.36791968,"Latitude":48.201814460000001,"Postal":1010,"City":"Vienna","NumHouseholds":1,"NumPeople":3,"NumParcelsToday_1":1,"TotalParcelWeightKG_1":2.1200000000000001}},{"type":"Feature","id":9,"geometry":{"type":"Point","coordinates":[16.366478630000074,48.202724240000066]},"properties":{"OBJECTID":9,"SOURCE_ID":223,"TotalParcelWeightKG":2.4100000000000001,"NumParcelsToday":1,"ZONE_ID":8,"Join_Count":1,"District":1,"Address":"Opernring 13, 1010","Longitude":16.36647863,"Latitude":48.202724240000002,"Postal":1010,"City":"Vienna","NumHouseholds":1,"NumPeople":1,"NumParcelsToday_1":1,"TotalParcelWeightKG_1":2.4100000000000001}},{"type":"Feature","id":10,"geometry":{"type":"Point","coordinates":[16.365034240000057,48.203048460000048]},"properties":{"OBJECTID":10,"SOURCE_ID":224,"TotalParcelWeightKG":2.8900000000000001,"NumParcelsToday":1,"ZONE_ID":8,"Join_Count":1,"District":1,"Address":"Opernring 19, 1010","Longitude":16.36503424,"Latitude":48.203048459999998,"Postal":1010,"City":"Vienna","NumHouseholds":1,"NumPeople":1,"NumParcelsToday_1":1,"TotalParcelWeightKG_1":2.8900000000000001}},{"type":"Feature","id":11,"geometry":{"type":"Point","coordinates":[16.367977370000062,48.202205110000079]},"properties":{"OBJECTID":11,"SOURCE_ID":225,"TotalParcelWeightKG":0.68000000000000005,"NumParcelsToday":1,"ZONE_ID":8,"Join_Count":1,"District":1,"Address":"Opernring 3-5, 1010","Longitude":16.367977369999998,"Latitude":48.202205110000001,"Postal":1010,"City":"Vienna","NumHouseholds":1,"NumPeople":2,"NumParcelsToday_1":1,"TotalParcelWeightKG_1":0.68000000000000005}},{"type":"Feature","id":12,"geometry":{"type":"Point","coordinates":[16.366006010000035,48.198307180000029]},"properties":{"OBJECTID":12,"SOURCE_ID":4274,"TotalParcelWeightKG":0.050000000000000003,"NumParcelsToday":1,"ZONE_ID":8,"Join_Count":2,"District":4,"Address":"Faulmanngasse 1, 1040","Longitude":16.36600601,"Latitude":48.19830718,"Postal":1040,"City":"Vienna","NumHouseholds":1,"NumPeople":3,"NumParcelsToday_1":1,"TotalParcelWeightKG_1":0.050000000000000003}},{"type":"Feature","id":13,"geometry":{"type":"Point","coordinates":[16.365268330000049,48.199050390000082]},"properties":{"OBJECTID":13,"SOURCE_ID":4275,"TotalParcelWeightKG":1.25,"NumParcelsToday":1,"ZONE_ID":8,"Join_Count":1,"District":4,"Address":"Faulmanngasse 8, 1040","Longitude":16.365268329999999,"Latitude":48.199050389999996,"Postal":1040,"City":"Vienna","NumHouseholds":1,"NumPeople":4,"NumParcelsToday_1":1,"TotalParcelWeightKG_1":1.25}},{"type":"Feature","id":14,"geometry":{"type":"Point","coordinates":[16.369236690000037,48.195131970000034]},"properties":{"OBJECTID":14,"SOURCE_ID":4276,"TotalParcelWeightKG":14.130000000000001,"NumParcelsToday":1,"ZONE_ID":8,"Join_Count":1,"District":4,"Address":"Favoritenstraße 10, 1040","Longitude":16.369236690000001,"Latitude":48.195131969999998,"Postal":1040,"City":"Vienna","NumHouseholds":1,"NumPeople":1,"NumParcelsToday_1":1,"TotalParcelWeightKG_1":14.130000000000001}},{"type":"Feature","id":15,"geometry":{"type":"Point","coordinates":[16.366391390000047,48.193277910000063]},"properties":{"OBJECTID":15,"SOURCE_ID":4301,"TotalParcelWeightKG":0.79000000000000004,"NumParcelsToday":1,"ZONE_ID":8,"Join_Count":1,"District":4,"Address":"Fleischmanngasse 2/2, 1040","Longitude":16.36639139,"Latitude":48.193277909999999,"Postal":1040,"City":"Vienna","NumHouseholds":1,"NumPeople":2,"NumParcelsToday_1":1,"TotalParcelWeightKG_1":0.79000000000000004}},{"type":"Feature","id":16,"geometry":{"type":"Point","coordinates":[16.366239700000051,48.19309080000005]},"properties":{"OBJECTID":16,"SOURCE_ID":4302,"TotalParcelWeightKG":0.5,"NumParcelsToday":1,"ZONE_ID":8,"Join_Count":1,"District":4,"Address":"Fleischmanngasse 3, 1040","Longitude":16.366239700000001,"Latitude":48.1930908,"Postal":1040,"City":"Vienna","NumHouseholds":1,"NumPeople":2,"NumParcelsToday_1":1,"TotalParcelWeightKG_1":0.5}},{"type":"Feature","id":17,"geometry":{"type":"Point","coordinates":[16.365406760000042,48.193646160000071]},"properties":{"OBJECTID":17,"SOURCE_ID":4303,"TotalParcelWeightKG":0.16,"NumParcelsToday":1,"ZONE_ID":8,"Join_Count":1,"District":4,"Address":"Fleischmanngasse 9, 1040","Longitude":16.365406759999999,"Latitude":48.19364616,"Postal":1040,"City":"Vienna","NumHouseholds":1,"NumPeople":2,"NumParcelsToday_1":1,"TotalParcelWeightKG_1":0.16}},{"type":"Feature","id":18,"geometry":{"type":"Point","coordinates":[16.369344870000077,48.194981390000066]},"properties":{"OBJECTID":18,"SOURCE_ID":4304,"TotalParcelWeightKG":0.40000000000000002,"NumParcelsToday":1,"ZONE_ID":8,"Join_Count":1,"District":4,"Address":"Floragasse 2, 1040","Longitude":16.369344869999999,"Latitude":48.194981390000002,"Postal":1040,"City":"Vienna","NumHouseholds":1,"NumPeople":2,"NumParcelsToday_1":1,"TotalParcelWeightKG_1":0.40000000000000002}},{"type":"Feature","id":19,"geometry":{"type":"Point","coordinates":[16.369027530000039,48.194922670000039]},"properties":{"OBJECTID":19,"SOURCE_ID":4305,"TotalParcelWeightKG":0.68999999999999995,"NumParcelsToday":1,"ZONE_ID":8,"Join_Count":1,"District":4,"Address":"Floragasse 4/2, 1040","Longitude":16.36902753,"Latitude":48.194922669999997,"Postal":1040,"City":"Vienna","NumHouseholds":1,"NumPeople":2,"NumParcelsToday_1":1,"TotalParcelWeightKG_1":0.68999999999999995}},{"type":"Feature","id":20,"geometry":{"type":"Point","coordinates":[16.368762490000051,48.194624350000026]},"properties":{"OBJECTID":20,"SOURCE_ID":4306,"TotalParcelWeightKG":1.8300000000000001,"NumParcelsToday":2,"ZONE_ID":8,"Join_Count":1,"District":4,"Address":"Floragasse 5, 1040","Longitude":16.368762490000002,"Latitude":48.194624349999998,"Postal":1040,"City":"Vienna","NumHouseholds":2,"NumPeople":4,"NumParcelsToday_1":2,"TotalParcelWeightKG_1":1.8300000000000001}},{"type":"Feature","id":21,"geometry":{"type":"Point","coordinates":[16.367961110000067,48.194435720000058]},"properties":{"OBJECTID":21,"SOURCE_ID":4307,"TotalParcelWeightKG":0.91000000000000003,"NumParcelsToday":1,"ZONE_ID":8,"Join_Count":1,"District":4,"Address":"Floragasse 7A, 1040","Longitude":16.36796111,"Latitude":48.194435720000001,"Postal":1040,"City":"Vienna","NumHouseholds":1,"NumPeople":4,"NumParcelsToday_1":1,"TotalParcelWeightKG_1":0.91000000000000003}},{"type":"Feature","id":22,"geometry":{"type":"Point","coordinates":[16.367884570000058,48.194643480000082]},"properties":{"OBJECTID":22,"SOURCE_ID":4308,"TotalParcelWeightKG":0.20999999999999999,"NumParcelsToday":1,"ZONE_ID":8,"Join_Count":3,"District":4,"Address":"Floragasse 8/2, 1040","Longitude":16.367884570000001,"Latitude":48.194643480000003,"Postal":1040,"City":"Vienna","NumHouseholds":1,"NumPeople":3,"NumParcelsToday_1":1,"TotalParcelWeightKG_1":0.20999999999999999}},{"type":"Feature","id":23,"geometry":{"type":"Point","coordinates":[16.367821050000032,48.197428510000066]},"properties":{"OBJECTID":23,"SOURCE_ID":4309,"TotalParcelWeightKG":0.12,"NumParcelsToday":1,"ZONE_ID":8,"Join_Count":2,"District":4,"Address":"Frankenberggasse 13, 1040","Longitude":16.36782105,"Latitude":48.197428510000002,"Postal":1040,"City":"Vienna","NumHouseholds":1,"NumPeople":2,"NumParcelsToday_1":1,"TotalParcelWeightKG_1":0.12}},{"type":"Feature","id":24,"geometry":{"type":"Point","coordinates":[16.363382310000077,48.194648870000037]},"properties":{"OBJECTID":24,"SOURCE_ID":4314,"TotalParcelWeightKG":18.629999999999999,"NumParcelsToday":1,"ZONE_ID":8,"Join_Count":1,"District":4,"Address":"Freundgasse 11, 1040","Longitude":16.363382309999999,"Latitude":48.194648870000002,"Postal":1040,"City":"Vienna","NumHouseholds":1,"NumPeople":4,"NumParcelsToday_1":1,"TotalParcelWeightKG_1":18.629999999999999}},{"type":"Feature","id":25,"geometry":{"type":"Point","coordinates":[16.363255390000063,48.194755470000075]},"properties":{"OBJECTID":25,"SOURCE_ID":4315,"TotalParcelWeightKG":0.41999999999999998,"NumParcelsToday":1,"ZONE_ID":8,"Join_Count":1,"District":4,"Address":"Freundgasse 13, 1040","Longitude":16.363255389999999,"Latitude":48.194755469999997,"Postal":1040,"City":"Vienna","NumHouseholds":1,"NumPeople":2,"NumParcelsToday_1":1,"TotalParcelWeightKG_1":0.41999999999999998}},{"type":"Feature","id":26,"geometry":{"type":"Point","coordinates":[16.363430960000073,48.19482215000005]},"properties":{"OBJECTID":26,"SOURCE_ID":4316,"TotalParcelWeightKG":2.8800000000000003,"NumParcelsToday":2,"ZONE_ID":8,"Join_Count":1,"District":4,"Address":"Freundgasse 14, 1040","Longitude":16.363430959999999,"Latitude":48.19482215,"Postal":1040,"City":"Vienna","NumHouseholds":2,"NumPeople":6,"NumParcelsToday_1":2,"TotalParcelWeightKG_1":2.8800000000000003}},{"type":"Feature","id":27,"geometry":{"type":"Point","coordinates":[16.363514370000075,48.195105150000074]},"properties":{"OBJECTID":27,"SOURCE_ID":4317,"TotalParcelWeightKG":1.1499999999999999,"NumParcelsToday":2,"ZONE_ID":8,"Join_Count":1,"District":4,"Address":"Freundgasse 16, 1040","Longitude":16.363514370000001,"Latitude":48.195105150000003,"Postal":1040,"City":"Vienna","NumHouseholds":2,"NumPeople":5,"NumParcelsToday_1":2,"TotalParcelWeightKG_1":1.1499999999999999}},{"type":"Feature","id":28,"geometry":{"type":"Point","coordinates":[16.363781080000024,48.194311620000065]},"properties":{"OBJECTID":28,"SOURCE_ID":4318,"TotalParcelWeightKG":0.25,"NumParcelsToday":1,"ZONE_ID":8,"Join_Count":1,"District":4,"Address":"Freundgasse 5, 1040","Longitude":16.363781079999999,"Latitude":48.194311620000001,"Postal":1040,"City":"Vienna","NumHouseholds":1,"NumPeople":2,"NumParcelsToday_1":1,"TotalParcelWeightKG_1":0.25}},{"type":"Feature","id":29,"geometry":{"type":"Point","coordinates":[16.363512460000038,48.194538940000029]},"properties":{"OBJECTID":29,"SOURCE_ID":4319,"TotalParcelWeightKG":1.3,"NumParcelsToday":1,"ZONE_ID":8,"Join_Count":1,"District":4,"Address":"Freundgasse 9, 1040","Longitude":16.363512459999999,"Latitude":48.194538940000001,"Postal":1040,"City":"Vienna","NumHouseholds":1,"NumPeople":3,"NumParcelsToday_1":1,"TotalParcelWeightKG_1":1.3}},{"type":"Feature","id":30,"geometry":{"type":"Point","coordinates":[16.363810930000056,48.193041680000078]},"properties":{"OBJECTID":30,"SOURCE_ID":4348,"TotalParcelWeightKG":0.79000000000000004,"NumParcelsToday":1,"ZONE_ID":8,"Join_Count":1,"District":4,"Address":"Große Neugasse 19-23/2, 1040","Longitude":16.36381093,"Latitude":48.19304168,"Postal":1040,"City":"Vienna","NumHouseholds":1,"NumPeople":3,"NumParcelsToday_1":1,"TotalParcelWeightKG_1":0.79000000000000004}},{"type":"Feature","id":31,"geometry":{"type":"Point","coordinates":[16.366331770000045,48.19160923000004]},"properties":{"OBJECTID":31,"SOURCE_ID":4349,"TotalParcelWeightKG":0.97999999999999998,"NumParcelsToday":1,"ZONE_ID":8,"Join_Count":2,"District":4,"Address":"Große Neugasse 2, 1040","Longitude":16.366331769999999,"Latitude":48.191609229999997,"Postal":1040,"City":"Vienna","NumHouseholds":1,"NumPeople":4,"NumParcelsToday_1":1,"TotalParcelWeightKG_1":0.97999999999999998}},{"type":"Feature","id":32,"geometry":{"type":"Point","coordinates":[16.364857200000074,48.19298359000004]},"properties":{"OBJECTID":32,"SOURCE_ID":4350,"TotalParcelWeightKG":2.0800000000000001,"NumParcelsToday":2,"ZONE_ID":8,"Join_Count":1,"District":4,"Address":"Große Neugasse 20, 1040","Longitude":16.364857199999999,"Latitude":48.192983589999997,"Postal":1040,"City":"Vienna","NumHouseholds":2,"NumPeople":5,"NumParcelsToday_1":2,"TotalParcelWeightKG_1":2.0800000000000001}},{"type":"Feature","id":33,"geometry":{"type":"Point","coordinates":[16.364627140000039,48.193123860000071]},"properties":{"OBJECTID":33,"SOURCE_ID":4351,"TotalParcelWeightKG":0.14999999999999999,"NumParcelsToday":1,"ZONE_ID":8,"Join_Count":1,"District":4,"Address":"Große Neugasse 22-24/2, 1040","Longitude":16.36462714,"Latitude":48.19312386,"Postal":1040,"City":"Vienna","NumHouseholds":1,"NumPeople":4,"NumParcelsToday_1":1,"TotalParcelWeightKG_1":0.14999999999999999}},{"type":"Feature","id":34,"geometry":{"type":"Point","coordinates":[16.364095440000028,48.193345400000055]},"properties":{"OBJECTID":34,"SOURCE_ID":4352,"TotalParcelWeightKG":0.67000000000000004,"NumParcelsToday":1,"ZONE_ID":8,"Join_Count":1,"District":4,"Address":"Große Neugasse 28, 1040","Longitude":16.36409544,"Latitude":48.193345399999998,"Postal":1040,"City":"Vienna","NumHouseholds":1,"NumPeople":5,"NumParcelsToday_1":1,"TotalParcelWeightKG_1":0.67000000000000004}},{"type":"Feature","id":35,"geometry":{"type":"Point","coordinates":[16.363965690000043,48.193439590000025]},"properties":{"OBJECTID":35,"SOURCE_ID":4353,"TotalParcelWeightKG":0.48999999999999999,"NumParcelsToday":1,"ZONE_ID":8,"Join_Count":1,"District":4,"Address":"Große Neugasse 30, 1040","Longitude":16.363965690000001,"Latitude":48.193439589999997,"Postal":1040,"City":"Vienna","NumHouseholds":1,"NumPeople":2,"NumParcelsToday_1":1,"TotalParcelWeightKG_1":0.48999999999999999}},{"type":"Feature","id":36,"geometry":{"type":"Point","coordinates":[16.363721000000055,48.193636870000034]},"properties":{"OBJECTID":36,"SOURCE_ID":4354,"TotalParcelWeightKG":1.8199999999999998,"NumParcelsToday":2,"ZONE_ID":8,"Join_Count":1,"District":4,"Address":"Große Neugasse 32-34, 1040","Longitude":16.363721000000002,"Latitude":48.193636869999999,"Postal":1040,"City":"Vienna","NumHouseholds":2,"NumPeople":3,"NumParcelsToday_1":2,"TotalParcelWeightKG_1":1.8199999999999998}},{"type":"Feature","id":37,"geometry":{"type":"Point","coordinates":[16.366133200000036,48.191760100000067]},"properties":{"OBJECTID":37,"SOURCE_ID":4355,"TotalParcelWeightKG":0.70999999999999996,"NumParcelsToday":1,"ZONE_ID":8,"Join_Count":1,"District":4,"Address":"Große Neugasse 4, 1040","Longitude":16.3661332,"Latitude":48.191760100000003,"Postal":1040,"City":"Vienna","NumHouseholds":1,"NumPeople":2,"NumParcelsToday_1":1,"TotalParcelWeightKG_1":0.70999999999999996}},{"type":"Feature","id":38,"geometry":{"type":"Point","coordinates":[16.363189790000035,48.19406390000006]},"properties":{"OBJECTID":38,"SOURCE_ID":4356,"TotalParcelWeightKG":0.39000000000000001,"NumParcelsToday":1,"ZONE_ID":8,"Join_Count":1,"District":4,"Address":"Große Neugasse 40, 1040","Longitude":16.36318979,"Latitude":48.194063900000003,"Postal":1040,"City":"Vienna","NumHouseholds":1,"NumPeople":3,"NumParcelsToday_1":1,"TotalParcelWeightKG_1":0.39000000000000001}},{"type":"Feature","id":39,"geometry":{"type":"Point","coordinates":[16.36543725000007,48.191916040000081]},"properties":{"OBJECTID":39,"SOURCE_ID":4357,"TotalParcelWeightKG":0.75,"NumParcelsToday":1,"ZONE_ID":8,"Join_Count":1,"District":4,"Address":"Große Neugasse 9, 1040","Longitude":16.365437249999999,"Latitude":48.191916040000002,"Postal":1040,"City":"Vienna","NumHouseholds":1,"NumPeople":5,"NumParcelsToday_1":1,"TotalParcelWeightKG_1":0.75}},{"type":"Feature","id":40,"geometry":{"type":"Point","coordinates":[16.361943470000028,48.195976500000029]},"properties":{"OBJECTID":40,"SOURCE_ID":4370,"TotalParcelWeightKG":0.83999999999999997,"NumParcelsToday":1,"ZONE_ID":8,"Join_Count":2,"District":4,"Address":"Heumühlgasse 12, 1040","Longitude":16.36194347,"Latitude":48.1959765,"Postal":1040,"City":"Vienna","NumHouseholds":1,"NumPeople":1,"NumParcelsToday_1":1,"TotalParcelWeightKG_1":0.83999999999999997}},{"type":"Feature","id":41,"geometry":{"type":"Point","coordinates":[16.362474560000067,48.19551081000003]},"properties":{"OBJECTID":41,"SOURCE_ID":4374,"TotalParcelWeightKG":0.25,"NumParcelsToday":1,"ZONE_ID":8,"Join_Count":1,"District":4,"Address":"Heumühlgasse 4, 1040","Longitude":16.362474559999999,"Latitude":48.195510810000002,"Postal":1040,"City":"Vienna","NumHouseholds":1,"NumPeople":2,"NumParcelsToday_1":1,"TotalParcelWeightKG_1":0.25}},{"type":"Feature","id":42,"geometry":{"type":"Point","coordinates":[16.365171320000059,48.190931360000036]},"properties":{"OBJECTID":42,"SOURCE_ID":4420,"TotalParcelWeightKG":29.91,"NumParcelsToday":1,"ZONE_ID":8,"Join_Count":1,"District":4,"Address":"Klagbaumgasse 7, 1040","Longitude":16.365171320000002,"Latitude":48.19093136,"Postal":1040,"City":"Vienna","NumHouseholds":1,"NumPeople":1,"NumParcelsToday_1":1,"TotalParcelWeightKG_1":29.91}},{"type":"Feature","id":43,"geometry":{"type":"Point","coordinates":[16.364885510000022,48.194292820000044]},"properties":{"OBJECTID":43,"SOURCE_ID":4426,"TotalParcelWeightKG":0.35999999999999999,"NumParcelsToday":1,"ZONE_ID":8,"Join_Count":1,"District":4,"Address":"Kleinschmidgasse 5, 1040","Longitude":16.364885510000001,"Latitude":48.194292820000001,"Postal":1040,"City":"Vienna","NumHouseholds":1,"NumPeople":5,"NumParcelsToday_1":1,"TotalParcelWeightKG_1":0.35999999999999999}},{"type":"Feature","id":44,"geometry":{"type":"Point","coordinates":[16.365281400000072,48.19789755000005]},"properties":{"OBJECTID":44,"SOURCE_ID":4438,"TotalParcelWeightKG":14.69,"NumParcelsToday":1,"ZONE_ID":8,"Join_Count":1,"District":4,"Address":"Kühnplatz 3, 1040","Longitude":16.365281400000001,"Latitude":48.19789755,"Postal":1040,"City":"Vienna","NumHouseholds":1,"NumPeople":2,"NumParcelsToday_1":1,"TotalParcelWeightKG_1":14.69}},{"type":"Feature","id":45,"geometry":{"type":"Point","coordinates":[16.366071710000028,48.19748861000005]},"properties":{"OBJECTID":45,"SOURCE_ID":4450,"TotalParcelWeightKG":0.91000000000000003,"NumParcelsToday":1,"ZONE_ID":8,"Join_Count":1,"District":4,"Address":"Margaretenstraße 10, 1040","Longitude":16.36607171,"Latitude":48.197488610000001,"Postal":1040,"City":"Vienna","NumHouseholds":1,"NumPeople":2,"NumParcelsToday_1":1,"TotalParcelWeightKG_1":0.91000000000000003}},{"type":"Feature","id":46,"geometry":{"type":"Point","coordinates":[16.365522200000044,48.196286630000031]},"properties":{"OBJECTID":46,"SOURCE_ID":4451,"TotalParcelWeightKG":3.02,"NumParcelsToday":1,"ZONE_ID":8,"Join_Count":2,"District":4,"Address":"Margaretenstraße 13-15, 1040","Longitude":16.365522200000001,"Latitude":48.196286630000003,"Postal":1040,"City":"Vienna","NumHouseholds":1,"NumPeople":6,"NumParcelsToday_1":1,"TotalParcelWeightKG_1":3.02}},{"type":"Feature","id":47,"geometry":{"type":"Point","coordinates":[16.366778990000057,48.197693640000068]},"properties":{"OBJECTID":47,"SOURCE_ID":4452,"TotalParcelWeightKG":0.22,"NumParcelsToday":1,"ZONE_ID":8,"Join_Count":1,"District":4,"Address":"Margaretenstraße 2-4, 1040","Longitude":16.36677899,"Latitude":48.197693639999997,"Postal":1040,"City":"Vienna","NumHouseholds":1,"NumPeople":4,"NumParcelsToday_1":1,"TotalParcelWeightKG_1":0.22}},{"type":"Feature","id":48,"geometry":{"type":"Point","coordinates":[16.364801030000024,48.195953970000062]},"properties":{"OBJECTID":48,"SOURCE_ID":4453,"TotalParcelWeightKG":12.69,"NumParcelsToday":1,"ZONE_ID":8,"Join_Count":1,"District":4,"Address":"Margaretenstraße 23, 1040","Longitude":16.364801029999999,"Latitude":48.195953969999998,"Postal":1040,"City":"Vienna","NumHouseholds":1,"NumPeople":1,"NumParcelsToday_1":1,"TotalParcelWeightKG_1":12.69}},{"type":"Feature","id":49,"geometry":{"type":"Point","coordinates":[16.36497023000004,48.19564838000008]},"properties":{"OBJECTID":49,"SOURCE_ID":4454,"TotalParcelWeightKG":2.2599999999999998,"NumParcelsToday":2,"ZONE_ID":8,"Join_Count":1,"District":4,"Address":"Margaretenstraße 25/2, 1040","Longitude":16.364970230000001,"Latitude":48.195648380000002,"Postal":1040,"City":"Vienna","NumHouseholds":1,"NumPeople":4,"NumParcelsToday_1":2,"TotalParcelWeightKG_1":2.2599999999999998}},{"type":"Feature","id":50,"geometry":{"type":"Point","coordinates":[16.364002630000073,48.195827010000073]},"properties":{"OBJECTID":50,"SOURCE_ID":4455,"TotalParcelWeightKG":0.25,"NumParcelsToday":1,"ZONE_ID":8,"Join_Count":1,"District":4,"Address":"Margaretenstraße 36, 1040","Longitude":16.364002630000002,"Latitude":48.195827010000002,"Postal":1040,"City":"Vienna","NumHouseholds":1,"NumPeople":1,"NumParcelsToday_1":1,"TotalParcelWeightKG_1":0.25}},{"type":"Feature","id":51,"geometry":{"type":"Point","coordinates":[16.362977390000026,48.19506688000007]},"properties":{"OBJECTID":51,"SOURCE_ID":4457,"TotalParcelWeightKG":0.5,"NumParcelsToday":1,"ZONE_ID":8,"Join_Count":1,"District":4,"Address":"Margaretenstraße 44, 1040","Longitude":16.362977390000001,"Latitude":48.195066879999999,"Postal":1040,"City":"Vienna","NumHouseholds":1,"NumPeople":4,"NumParcelsToday_1":1,"TotalParcelWeightKG_1":0.5}},{"type":"Feature","id":52,"geometry":{"type":"Point","coordinates":[16.366596930000071,48.197605650000071]},"properties":{"OBJECTID":52,"SOURCE_ID":4458,"TotalParcelWeightKG":0.42999999999999999,"NumParcelsToday":1,"ZONE_ID":8,"Join_Count":1,"District":4,"Address":"Margaretenstraße 6, 1040","Longitude":16.36659693,"Latitude":48.19760565,"Postal":1040,"City":"Vienna","NumHouseholds":1,"NumPeople":4,"NumParcelsToday_1":1,"TotalParcelWeightKG_1":0.42999999999999999}},{"type":"Feature","id":53,"geometry":{"type":"Point","coordinates":[16.366183170000056,48.197166080000045]},"properties":{"OBJECTID":53,"SOURCE_ID":4459,"TotalParcelWeightKG":1.22,"NumParcelsToday":1,"ZONE_ID":8,"Join_Count":1,"District":4,"Address":"Margaretenstraße 7, 1040","Longitude":16.366183169999999,"Latitude":48.197166080000002,"Postal":1040,"City":"Vienna","NumHouseholds":1,"NumPeople":2,"NumParcelsToday_1":1,"TotalParcelWeightKG_1":1.22}},{"type":"Feature","id":54,"geometry":{"type":"Point","coordinates":[16.364515460000064,48.192546700000037]},"properties":{"OBJECTID":54,"SOURCE_ID":4469,"TotalParcelWeightKG":0.46999999999999997,"NumParcelsToday":2,"ZONE_ID":8,"Join_Count":1,"District":4,"Address":"Mittersteig 2, 1040","Longitude":16.36451546,"Latitude":48.192546700000001,"Postal":1040,"City":"Vienna","NumHouseholds":2,"NumPeople":4,"NumParcelsToday_1":2,"TotalParcelWeightKG_1":0.46999999999999997}},{"type":"Feature","id":55,"geometry":{"type":"Point","coordinates":[16.365577810000048,48.19240029000008]},"properties":{"OBJECTID":55,"SOURCE_ID":4492,"TotalParcelWeightKG":2.48,"NumParcelsToday":1,"ZONE_ID":8,"Join_Count":1,"District":4,"Address":"Mostgasse 2/1, 1040","Longitude":16.365577810000001,"Latitude":48.192400290000002,"Postal":1040,"City":"Vienna","NumHouseholds":1,"NumPeople":1,"NumParcelsToday_1":1,"TotalParcelWeightKG_1":2.48}},{"type":"Feature","id":56,"geometry":{"type":"Point","coordinates":[16.365689350000025,48.192465190000064]},"properties":{"OBJECTID":56,"SOURCE_ID":4493,"TotalParcelWeightKG":0.47999999999999998,"NumParcelsToday":1,"ZONE_ID":8,"Join_Count":1,"District":4,"Address":"Mostgasse 2/2, 1040","Longitude":16.36568935,"Latitude":48.19246519,"Postal":1040,"City":"Vienna","NumHouseholds":1,"NumPeople":4,"NumParcelsToday_1":1,"TotalParcelWeightKG_1":0.47999999999999998}},{"type":"Feature","id":57,"geometry":{"type":"Point","coordinates":[16.365200940000022,48.192167100000063]},"properties":{"OBJECTID":57,"SOURCE_ID":4494,"TotalParcelWeightKG":0.46000000000000002,"NumParcelsToday":1,"ZONE_ID":8,"Join_Count":1,"District":4,"Address":"Mostgasse 4, 1040","Longitude":16.365200940000001,"Latitude":48.192167099999999,"Postal":1040,"City":"Vienna","NumHouseholds":1,"NumPeople":1,"NumParcelsToday_1":1,"TotalParcelWeightKG_1":0.46000000000000002}},{"type":"Feature","id":58,"geometry":{"type":"Point","coordinates":[16.367800050000028,48.195228240000063]},"properties":{"OBJECTID":58,"SOURCE_ID":4495,"TotalParcelWeightKG":1.5700000000000001,"NumParcelsToday":1,"ZONE_ID":8,"Join_Count":2,"District":4,"Address":"Mozartgasse 4, 1040","Longitude":16.36780005,"Latitude":48.195228239999999,"Postal":1040,"City":"Vienna","NumHouseholds":1,"NumPeople":3,"NumParcelsToday_1":1,"TotalParcelWeightKG_1":1.5700000000000001}},{"type":"Feature","id":59,"geometry":{"type":"Point","coordinates":[16.367279560000043,48.195319570000038]},"properties":{"OBJECTID":59,"SOURCE_ID":4496,"TotalParcelWeightKG":3.9000000000000004,"NumParcelsToday":3,"ZONE_ID":8,"Join_Count":1,"District":4,"Address":"Mozartgasse 6, 1040","Longitude":16.36727956,"Latitude":48.195319570000002,"Postal":1040,"City":"Vienna","NumHouseholds":3,"NumPeople":7,"NumParcelsToday_1":3,"TotalParcelWeightKG_1":3.9000000000000004}},{"type":"Feature","id":60,"geometry":{"type":"Point","coordinates":[16.367418330000078,48.195037420000062]},"properties":{"OBJECTID":60,"SOURCE_ID":4497,"TotalParcelWeightKG":0.23999999999999999,"NumParcelsToday":1,"ZONE_ID":8,"Join_Count":1,"District":4,"Address":"Mozartgasse 9, 1040","Longitude":16.36741833,"Latitude":48.195037419999998,"Postal":1040,"City":"Vienna","NumHouseholds":1,"NumPeople":2,"NumParcelsToday_1":1,"TotalParcelWeightKG_1":0.23999999999999999}},{"type":"Feature","id":61,"geometry":{"type":"Point","coordinates":[16.363660720000041,48.197099360000038]},"properties":{"OBJECTID":61,"SOURCE_ID":4499,"TotalParcelWeightKG":0.5,"NumParcelsToday":1,"ZONE_ID":8,"Join_Count":1,"District":4,"Address":"Mühlgasse 15, 1040","Longitude":16.363660719999999,"Latitude":48.197099360000003,"Postal":1040,"City":"Vienna","NumHouseholds":1,"NumPeople":3,"NumParcelsToday_1":1,"TotalParcelWeightKG_1":0.5}},{"type":"Feature","id":62,"geometry":{"type":"Point","coordinates":[16.364380640000036,48.197832130000052]},"properties":{"OBJECTID":62,"SOURCE_ID":4500,"TotalParcelWeightKG":0.20999999999999999,"NumParcelsToday":1,"ZONE_ID":8,"Join_Count":2,"District":4,"Address":"Mühlgasse 18, 1040","Longitude":16.36438064,"Latitude":48.197832130000002,"Postal":1040,"City":"Vienna","NumHouseholds":1,"NumPeople":5,"NumParcelsToday_1":1,"TotalParcelWeightKG_1":0.20999999999999999}},{"type":"Feature","id":63,"geometry":{"type":"Point","coordinates":[16.362934270000039,48.19671642000003]},"properties":{"OBJECTID":63,"SOURCE_ID":4501,"TotalParcelWeightKG":0.20999999999999999,"NumParcelsToday":1,"ZONE_ID":8,"Join_Count":1,"District":4,"Address":"Mühlgasse 21, 1040","Longitude":16.36293427,"Latitude":48.196716420000001,"Postal":1040,"City":"Vienna","NumHouseholds":1,"NumPeople":2,"NumParcelsToday_1":1,"TotalParcelWeightKG_1":0.20999999999999999}},{"type":"Feature","id":64,"geometry":{"type":"Point","coordinates":[16.363915410000061,48.197454970000081]},"properties":{"OBJECTID":64,"SOURCE_ID":4502,"TotalParcelWeightKG":0.059999999999999998,"NumParcelsToday":1,"ZONE_ID":8,"Join_Count":1,"District":4,"Address":"Mühlgasse 22, 1040","Longitude":16.363915410000001,"Latitude":48.197454970000003,"Postal":1040,"City":"Vienna","NumHouseholds":1,"NumPeople":2,"NumParcelsToday_1":1,"TotalParcelWeightKG_1":0.059999999999999998}},{"type":"Feature","id":65,"geometry":{"type":"Point","coordinates":[16.362757200000033,48.196624730000053]},"properties":{"OBJECTID":65,"SOURCE_ID":4503,"TotalParcelWeightKG":0.82999999999999996,"NumParcelsToday":1,"ZONE_ID":8,"Join_Count":1,"District":4,"Address":"Mühlgasse 23, 1040","Longitude":16.362757200000001,"Latitude":48.196624730000003,"Postal":1040,"City":"Vienna","NumHouseholds":1,"NumPeople":1,"NumParcelsToday_1":1,"TotalParcelWeightKG_1":0.82999999999999996}},{"type":"Feature","id":66,"geometry":{"type":"Point","coordinates":[16.362895750000064,48.196885590000079]},"properties":{"OBJECTID":66,"SOURCE_ID":4504,"TotalParcelWeightKG":0.089999999999999997,"NumParcelsToday":1,"ZONE_ID":8,"Join_Count":1,"District":4,"Address":"Mühlgasse 28, 1040","Longitude":16.36289575,"Latitude":48.196885590000001,"Postal":1040,"City":"Vienna","NumHouseholds":1,"NumPeople":3,"NumParcelsToday_1":1,"TotalParcelWeightKG_1":0.089999999999999997}},{"type":"Feature","id":67,"geometry":{"type":"Point","coordinates":[16.365667550000069,48.198750190000055]},"properties":{"OBJECTID":67,"SOURCE_ID":4505,"TotalParcelWeightKG":0.48999999999999999,"NumParcelsToday":1,"ZONE_ID":8,"Join_Count":1,"District":4,"Address":"Mühlgasse 3, 1040","Longitude":16.365667550000001,"Latitude":48.198750189999998,"Postal":1040,"City":"Vienna","NumHouseholds":1,"NumPeople":2,"NumParcelsToday_1":1,"TotalParcelWeightKG_1":0.48999999999999999}},{"type":"Feature","id":68,"geometry":{"type":"Point","coordinates":[16.361943470000028,48.195976500000029]},"properties":{"OBJECTID":68,"SOURCE_ID":4506,"TotalParcelWeightKG":0.92000000000000004,"NumParcelsToday":1,"ZONE_ID":8,"Join_Count":2,"District":4,"Address":"Heumühlgasse 12, 1040","Longitude":16.36194347,"Latitude":48.1959765,"Postal":1040,"City":"Vienna","NumHouseholds":1,"NumPeople":1,"NumParcelsToday_1":1,"TotalParcelWeightKG_1":0.83999999999999997}},{"type":"Feature","id":69,"geometry":{"type":"Point","coordinates":[16.361631170000067,48.196317240000042]},"properties":{"OBJECTID":69,"SOURCE_ID":4507,"TotalParcelWeightKG":0.040000000000000001,"NumParcelsToday":1,"ZONE_ID":8,"Join_Count":1,"District":4,"Address":"Mühlgasse 34, 1040","Longitude":16.361631169999999,"Latitude":48.196317239999999,"Postal":1040,"City":"Vienna","NumHouseholds":1,"NumPeople":3,"NumParcelsToday_1":1,"TotalParcelWeightKG_1":0.040000000000000001}},{"type":"Feature","id":70,"geometry":{"type":"Point","coordinates":[16.367884570000058,48.194643480000082]},"properties":{"OBJECTID":70,"SOURCE_ID":4508,"TotalParcelWeightKG":0.34999999999999998,"NumParcelsToday":1,"ZONE_ID":8,"Join_Count":3,"District":4,"Address":"Floragasse 8/2, 1040","Longitude":16.367884570000001,"Latitude":48.194643480000003,"Postal":1040,"City":"Vienna","NumHouseholds":1,"NumPeople":3,"NumParcelsToday_1":1,"TotalParcelWeightKG_1":0.20999999999999999}},{"type":"Feature","id":71,"geometry":{"type":"Point","coordinates":[16.367800050000028,48.195228240000063]},"properties":{"OBJECTID":71,"SOURCE_ID":4511,"TotalParcelWeightKG":0.77000000000000002,"NumParcelsToday":1,"ZONE_ID":8,"Join_Count":2,"District":4,"Address":"Mozartgasse 4, 1040","Longitude":16.36780005,"Latitude":48.195228239999999,"Postal":1040,"City":"Vienna","NumHouseholds":1,"NumPeople":3,"NumParcelsToday_1":1,"TotalParcelWeightKG_1":1.5700000000000001}},{"type":"Feature","id":72,"geometry":{"type":"Point","coordinates":[16.368550310000046,48.19474168000005]},"properties":{"OBJECTID":72,"SOURCE_ID":4512,"TotalParcelWeightKG":1.27,"NumParcelsToday":1,"ZONE_ID":8,"Join_Count":1,"District":4,"Address":"Neumanngasse 9, 1040","Longitude":16.36855031,"Latitude":48.19474168,"Postal":1040,"City":"Vienna","NumHouseholds":1,"NumPeople":4,"NumParcelsToday_1":1,"TotalParcelWeightKG_1":1.27}},{"type":"Feature","id":73,"geometry":{"type":"Point","coordinates":[16.366268110000021,48.197956020000049]},"properties":{"OBJECTID":73,"SOURCE_ID":4514,"TotalParcelWeightKG":0.41000000000000003,"NumParcelsToday":2,"ZONE_ID":8,"Join_Count":1,"District":4,"Address":"Operngasse 21, 1040","Longitude":16.36626811,"Latitude":48.197956019999999,"Postal":1040,"City":"Vienna","NumHouseholds":2,"NumPeople":5,"NumParcelsToday_1":2,"TotalParcelWeightKG_1":0.41000000000000003}},{"type":"Feature","id":74,"geometry":{"type":"Point","coordinates":[16.366169250000041,48.198658590000036]},"properties":{"OBJECTID":74,"SOURCE_ID":4515,"TotalParcelWeightKG":4.1600000000000001,"NumParcelsToday":1,"ZONE_ID":8,"Join_Count":1,"District":4,"Address":"Operngasse 24, 1040","Longitude":16.366169249999999,"Latitude":48.198658590000001,"Postal":1040,"City":"Vienna","NumHouseholds":1,"NumPeople":3,"NumParcelsToday_1":1,"TotalParcelWeightKG_1":4.1600000000000001}},{"type":"Feature","id":75,"geometry":{"type":"Point","coordinates":[16.366006010000035,48.198307180000029]},"properties":{"OBJECTID":75,"SOURCE_ID":4516,"TotalParcelWeightKG":1.0800000000000001,"NumParcelsToday":2,"ZONE_ID":8,"Join_Count":2,"District":4,"Address":"Faulmanngasse 1, 1040","Longitude":16.36600601,"Latitude":48.19830718,"Postal":1040,"City":"Vienna","NumHouseholds":1,"NumPeople":3,"NumParcelsToday_1":1,"TotalParcelWeightKG_1":0.050000000000000003}},{"type":"Feature","id":76,"geometry":{"type":"Point","coordinates":[16.365680840000039,48.197529630000076]},"properties":{"OBJECTID":76,"SOURCE_ID":4517,"TotalParcelWeightKG":0.5,"NumParcelsToday":1,"ZONE_ID":8,"Join_Count":1,"District":4,"Address":"Operngasse 34, 1040","Longitude":16.36568084,"Latitude":48.197529629999998,"Postal":1040,"City":"Vienna","NumHouseholds":1,"NumPeople":1,"NumParcelsToday_1":1,"TotalParcelWeightKG_1":0.5}},{"type":"Feature","id":77,"geometry":{"type":"Point","coordinates":[16.365085510000029,48.196173780000038]},"properties":{"OBJECTID":77,"SOURCE_ID":4525,"TotalParcelWeightKG":0.64000000000000001,"NumParcelsToday":1,"ZONE_ID":8,"Join_Count":1,"District":4,"Address":"Paulanergasse 15, 1040","Longitude":16.36508551,"Latitude":48.196173780000002,"Postal":1040,"City":"Vienna","NumHouseholds":1,"NumPeople":1,"NumParcelsToday_1":1,"TotalParcelWeightKG_1":0.64000000000000001}},{"type":"Feature","id":78,"geometry":{"type":"Point","coordinates":[16.365522200000044,48.196286630000031]},"properties":{"OBJECTID":78,"SOURCE_ID":4526,"TotalParcelWeightKG":2.8199999999999998,"NumParcelsToday":1,"ZONE_ID":8,"Join_Count":2,"District":4,"Address":"Margaretenstraße 13-15, 1040","Longitude":16.365522200000001,"Latitude":48.196286630000003,"Postal":1040,"City":"Vienna","NumHouseholds":1,"NumPeople":6,"NumParcelsToday_1":1,"TotalParcelWeightKG_1":3.02}},{"type":"Feature","id":79,"geometry":{"type":"Point","coordinates":[16.367277840000042,48.195593960000053]},"properties":{"OBJECTID":79,"SOURCE_ID":4529,"TotalParcelWeightKG":0.82999999999999996,"NumParcelsToday":1,"ZONE_ID":8,"Join_Count":1,"District":4,"Address":"Paulanergasse 5, 1040","Longitude":16.36727784,"Latitude":48.195593959999997,"Postal":1040,"City":"Vienna","NumHouseholds":1,"NumPeople":5,"NumParcelsToday_1":1,"TotalParcelWeightKG_1":0.82999999999999996}},{"type":"Feature","id":80,"geometry":{"type":"Point","coordinates":[16.367461610000078,48.195856870000057]},"properties":{"OBJECTID":80,"SOURCE_ID":4530,"TotalParcelWeightKG":2.3100000000000001,"NumParcelsToday":2,"ZONE_ID":8,"Join_Count":2,"District":4,"Address":"Paulanergasse 6(PFARRHOF), 1040","Longitude":16.367461609999999,"Latitude":48.19585687,"Postal":1040,"City":"Vienna","NumHouseholds":2,"NumPeople":6,"NumParcelsToday_1":2,"TotalParcelWeightKG_1":2.3100000000000001}},{"type":"Feature","id":81,"geometry":{"type":"Point","coordinates":[16.364374690000034,48.194370380000066]},"properties":{"OBJECTID":81,"SOURCE_ID":4543,"TotalParcelWeightKG":0.31,"NumParcelsToday":1,"ZONE_ID":8,"Join_Count":1,"District":4,"Address":"Preßgasse 1-3, 1040","Longitude":16.364374689999998,"Latitude":48.194370380000002,"Postal":1040,"City":"Vienna","NumHouseholds":1,"NumPeople":3,"NumParcelsToday_1":1,"TotalParcelWeightKG_1":0.31}},{"type":"Feature","id":82,"geometry":{"type":"Point","coordinates":[16.363688210000078,48.194956810000065]},"properties":{"OBJECTID":82,"SOURCE_ID":4544,"TotalParcelWeightKG":2.54,"NumParcelsToday":3,"ZONE_ID":8,"Join_Count":1,"District":4,"Address":"Preßgasse 13, 1040","Longitude":16.363688209999999,"Latitude":48.194956810000001,"Postal":1040,"City":"Vienna","NumHouseholds":3,"NumPeople":4,"NumParcelsToday_1":3,"TotalParcelWeightKG_1":2.54}},{"type":"Feature","id":83,"geometry":{"type":"Point","coordinates":[16.364775770000051,48.194438140000045]},"properties":{"OBJECTID":83,"SOURCE_ID":4545,"TotalParcelWeightKG":4.6400000000000006,"NumParcelsToday":2,"ZONE_ID":8,"Join_Count":1,"District":4,"Address":"Preßgasse 2, 1040","Longitude":16.364775770000001,"Latitude":48.194438140000003,"Postal":1040,"City":"Vienna","NumHouseholds":2,"NumPeople":4,"NumParcelsToday_1":2,"TotalParcelWeightKG_1":4.6400000000000006}},{"type":"Feature","id":84,"geometry":{"type":"Point","coordinates":[16.362455220000072,48.196095910000054]},"properties":{"OBJECTID":84,"SOURCE_ID":4546,"TotalParcelWeightKG":0.45000000000000001,"NumParcelsToday":1,"ZONE_ID":8,"Join_Count":1,"District":4,"Address":"Preßgasse 25, 1040","Longitude":16.362455220000001,"Latitude":48.196095909999997,"Postal":1040,"City":"Vienna","NumHouseholds":1,"NumPeople":1,"NumParcelsToday_1":1,"TotalParcelWeightKG_1":0.45000000000000001}},{"type":"Feature","id":85,"geometry":{"type":"Point","coordinates":[16.362147250000078,48.19702183000004]},"properties":{"OBJECTID":85,"SOURCE_ID":4547,"TotalParcelWeightKG":0.87,"NumParcelsToday":1,"ZONE_ID":8,"Join_Count":1,"District":4,"Address":"Preßgasse 30, 1040","Longitude":16.36214725,"Latitude":48.197021829999997,"Postal":1040,"City":"Vienna","NumHouseholds":1,"NumPeople":2,"NumParcelsToday_1":1,"TotalParcelWeightKG_1":0.87}},{"type":"Feature","id":86,"geometry":{"type":"Point","coordinates":[16.364406980000069,48.194615430000056]},"properties":{"OBJECTID":86,"SOURCE_ID":4549,"TotalParcelWeightKG":5.4100000000000001,"NumParcelsToday":2,"ZONE_ID":8,"Join_Count":1,"District":4,"Address":"Preßgasse 4, 1040","Longitude":16.364406979999998,"Latitude":48.194615429999999,"Postal":1040,"City":"Vienna","NumHouseholds":2,"NumPeople":6,"NumParcelsToday_1":2,"TotalParcelWeightKG_1":5.4100000000000001}},{"type":"Feature","id":87,"geometry":{"type":"Point","coordinates":[16.366560770000035,48.199682100000075]},"properties":{"OBJECTID":87,"SOURCE_ID":4582,"TotalParcelWeightKG":0.28000000000000003,"NumParcelsToday":2,"ZONE_ID":8,"Join_Count":1,"District":4,"Address":"Rechte Wienzeile 1, 1040","Longitude":16.36656077,"Latitude":48.199682099999997,"Postal":1040,"City":"Vienna","NumHouseholds":2,"NumPeople":5,"NumParcelsToday_1":2,"TotalParcelWeightKG_1":0.28000000000000003}},{"type":"Feature","id":88,"geometry":{"type":"Point","coordinates":[16.364083840000035,48.198474670000053]},"properties":{"OBJECTID":88,"SOURCE_ID":4583,"TotalParcelWeightKG":1.3,"NumParcelsToday":1,"ZONE_ID":8,"Join_Count":1,"District":4,"Address":"Rechte Wienzeile 15, 1040","Longitude":16.364083839999999,"Latitude":48.198474670000003,"Postal":1040,"City":"Vienna","NumHouseholds":1,"NumPeople":3,"NumParcelsToday_1":1,"TotalParcelWeightKG_1":1.3}},{"type":"Feature","id":89,"geometry":{"type":"Point","coordinates":[16.363616640000032,48.198191320000035]},"properties":{"OBJECTID":89,"SOURCE_ID":4584,"TotalParcelWeightKG":1.5700000000000001,"NumParcelsToday":1,"ZONE_ID":8,"Join_Count":1,"District":4,"Address":"Rechte Wienzeile 19, 1040","Longitude":16.36361664,"Latitude":48.198191319999999,"Postal":1040,"City":"Vienna","NumHouseholds":1,"NumPeople":4,"NumParcelsToday_1":1,"TotalParcelWeightKG_1":1.5700000000000001}},{"type":"Feature","id":90,"geometry":{"type":"Point","coordinates":[16.363301650000039,48.198022140000035]},"properties":{"OBJECTID":90,"SOURCE_ID":4585,"TotalParcelWeightKG":0.34999999999999998,"NumParcelsToday":1,"ZONE_ID":8,"Join_Count":1,"District":4,"Address":"Rechte Wienzeile 21, 1040","Longitude":16.36330165,"Latitude":48.198022139999999,"Postal":1040,"City":"Vienna","NumHouseholds":1,"NumPeople":5,"NumParcelsToday_1":1,"TotalParcelWeightKG_1":0.34999999999999998}},{"type":"Feature","id":91,"geometry":{"type":"Point","coordinates":[16.365818700000034,48.199369060000038]},"properties":{"OBJECTID":91,"SOURCE_ID":4586,"TotalParcelWeightKG":1.2,"NumParcelsToday":2,"ZONE_ID":8,"Join_Count":1,"District":4,"Address":"Rechte Wienzeile 3, 1040","Longitude":16.365818699999998,"Latitude":48.199369060000002,"Postal":1040,"City":"Vienna","NumHouseholds":2,"NumPeople":6,"NumParcelsToday_1":2,"TotalParcelWeightKG_1":1.2}},{"type":"Feature","id":92,"geometry":{"type":"Point","coordinates":[16.364862520000031,48.198868830000038]},"properties":{"OBJECTID":92,"SOURCE_ID":4590,"TotalParcelWeightKG":0.5,"NumParcelsToday":1,"ZONE_ID":8,"Join_Count":1,"District":4,"Address":"Rechte Wienzeile 9, 1040","Longitude":16.364862519999999,"Latitude":48.198868830000002,"Postal":1040,"City":"Vienna","NumHouseholds":1,"NumPeople":1,"NumParcelsToday_1":1,"TotalParcelWeightKG_1":0.5}},{"type":"Feature","id":93,"geometry":{"type":"Point","coordinates":[16.364900130000024,48.193492330000026]},"properties":{"OBJECTID":93,"SOURCE_ID":4593,"TotalParcelWeightKG":0.39000000000000001,"NumParcelsToday":1,"ZONE_ID":8,"Join_Count":1,"District":4,"Address":"Rienößlgasse 14, 1040","Longitude":16.364900129999999,"Latitude":48.193492329999998,"Postal":1040,"City":"Vienna","NumHouseholds":1,"NumPeople":1,"NumParcelsToday_1":1,"TotalParcelWeightKG_1":0.39000000000000001}},{"type":"Feature","id":94,"geometry":{"type":"Point","coordinates":[16.364011160000075,48.192713020000042]},"properties":{"OBJECTID":94,"SOURCE_ID":4595,"TotalParcelWeightKG":2.2999999999999998,"NumParcelsToday":1,"ZONE_ID":8,"Join_Count":1,"District":4,"Address":"Rienößlgasse 22, 1040","Longitude":16.36401116,"Latitude":48.192713019999999,"Postal":1040,"City":"Vienna","NumHouseholds":1,"NumPeople":1,"NumParcelsToday_1":1,"TotalParcelWeightKG_1":2.2999999999999998}},{"type":"Feature","id":95,"geometry":{"type":"Point","coordinates":[16.365407970000035,48.194108410000069]},"properties":{"OBJECTID":95,"SOURCE_ID":4597,"TotalParcelWeightKG":2.25,"NumParcelsToday":2,"ZONE_ID":8,"Join_Count":1,"District":4,"Address":"Rienößlgasse 8, 1040","Longitude":16.36540797,"Latitude":48.194108409999998,"Postal":1040,"City":"Vienna","NumHouseholds":1,"NumPeople":6,"NumParcelsToday_1":2,"TotalParcelWeightKG_1":2.25}},{"type":"Feature","id":96,"geometry":{"type":"Point","coordinates":[16.367078370000058,48.19783754000008]},"properties":{"OBJECTID":96,"SOURCE_ID":4599,"TotalParcelWeightKG":0.57999999999999996,"NumParcelsToday":2,"ZONE_ID":8,"Join_Count":1,"District":4,"Address":"Rilkeplatz 7, 1040","Longitude":16.367078370000002,"Latitude":48.197837540000002,"Postal":1040,"City":"Vienna","NumHouseholds":1,"NumPeople":3,"NumParcelsToday_1":2,"TotalParcelWeightKG_1":0.57999999999999996}},{"type":"Feature","id":97,"geometry":{"type":"Point","coordinates":[16.365855130000057,48.191666200000043]},"properties":{"OBJECTID":97,"SOURCE_ID":4604,"TotalParcelWeightKG":0.38,"NumParcelsToday":1,"ZONE_ID":8,"Join_Count":1,"District":4,"Address":"Rubensgasse 2, 1040","Longitude":16.36585513,"Latitude":48.1916662,"Postal":1040,"City":"Vienna","NumHouseholds":1,"NumPeople":3,"NumParcelsToday_1":1,"TotalParcelWeightKG_1":0.38}},{"type":"Feature","id":98,"geometry":{"type":"Point","coordinates":[16.364699530000053,48.19653487000005]},"properties":{"OBJECTID":98,"SOURCE_ID":4639,"TotalParcelWeightKG":0.98999999999999999,"NumParcelsToday":2,"ZONE_ID":8,"Join_Count":1,"District":4,"Address":"Schikanedergasse 1, 1040","Longitude":16.364699529999999,"Latitude":48.196534870000001,"Postal":1040,"City":"Vienna","NumHouseholds":2,"NumPeople":6,"NumParcelsToday_1":2,"TotalParcelWeightKG_1":0.98999999999999999}},{"type":"Feature","id":99,"geometry":{"type":"Point","coordinates":[16.363172170000041,48.197632050000038]},"properties":{"OBJECTID":99,"SOURCE_ID":4640,"TotalParcelWeightKG":0.5,"NumParcelsToday":1,"ZONE_ID":8,"Join_Count":1,"District":4,"Address":"Schikanedergasse 13, 1040","Longitude":16.363172169999999,"Latitude":48.197632050000003,"Postal":1040,"City":"Vienna","NumHouseholds":1,"NumPeople":5,"NumParcelsToday_1":1,"TotalParcelWeightKG_1":0.5}},{"type":"Feature","id":100,"geometry":{"type":"Point","coordinates":[16.362856670000042,48.197765400000037]},"properties":{"OBJECTID":100,"SOURCE_ID":4641,"TotalParcelWeightKG":0.60999999999999999,"NumParcelsToday":1,"ZONE_ID":8,"Join_Count":1,"District":4,"Address":"Schikanedergasse 15, 1040","Longitude":16.362856669999999,"Latitude":48.197765400000002,"Postal":1040,"City":"Vienna","NumHouseholds":1,"NumPeople":2,"NumParcelsToday_1":1,"TotalParcelWeightKG_1":0.60999999999999999}},{"type":"Feature","id":101,"geometry":{"type":"Point","coordinates":[16.364521440000033,48.197528840000075]},"properties":{"OBJECTID":101,"SOURCE_ID":4642,"TotalParcelWeightKG":0.93000000000000005,"NumParcelsToday":1,"ZONE_ID":8,"Join_Count":1,"District":4,"Address":"Schleifmühlgasse 17, 1040","Longitude":16.364521440000001,"Latitude":48.197528839999997,"Postal":1040,"City":"Vienna","NumHouseholds":1,"NumPeople":3,"NumParcelsToday_1":1,"TotalParcelWeightKG_1":0.93000000000000005}},{"type":"Feature","id":102,"geometry":{"type":"Point","coordinates":[16.364380640000036,48.197832130000052]},"properties":{"OBJECTID":102,"SOURCE_ID":4643,"TotalParcelWeightKG":1.9099999999999999,"NumParcelsToday":1,"ZONE_ID":8,"Join_Count":2,"District":4,"Address":"Mühlgasse 18, 1040","Longitude":16.36438064,"Latitude":48.197832130000002,"Postal":1040,"City":"Vienna","NumHouseholds":1,"NumPeople":5,"NumParcelsToday_1":1,"TotalParcelWeightKG_1":0.20999999999999999}},{"type":"Feature","id":103,"geometry":{"type":"Point","coordinates":[16.366441400000042,48.19641751000006]},"properties":{"OBJECTID":103,"SOURCE_ID":4644,"TotalParcelWeightKG":0.44,"NumParcelsToday":1,"ZONE_ID":8,"Join_Count":1,"District":4,"Address":"Schleifmühlgasse 1A, 1040","Longitude":16.366441399999999,"Latitude":48.196417510000003,"Postal":1040,"City":"Vienna","NumHouseholds":1,"NumPeople":1,"NumParcelsToday_1":1,"TotalParcelWeightKG_1":0.44}},{"type":"Feature","id":104,"geometry":{"type":"Point","coordinates":[16.363856660000067,48.198270310000055]},"properties":{"OBJECTID":104,"SOURCE_ID":4645,"TotalParcelWeightKG":4.4900000000000002,"NumParcelsToday":1,"ZONE_ID":8,"Join_Count":1,"District":4,"Address":"Schleifmühlgasse 25, 1040","Longitude":16.36385666,"Latitude":48.198270309999998,"Postal":1040,"City":"Vienna","NumHouseholds":1,"NumPeople":1,"NumParcelsToday_1":1,"TotalParcelWeightKG_1":4.4900000000000002}},{"type":"Feature","id":105,"geometry":{"type":"Point","coordinates":[16.366172560000052,48.196498520000034]},"properties":{"OBJECTID":105,"SOURCE_ID":4646,"TotalParcelWeightKG":1.8600000000000001,"NumParcelsToday":1,"ZONE_ID":8,"Join_Count":1,"District":4,"Address":"Schleifmühlgasse 3, 1040","Longitude":16.366172559999999,"Latitude":48.196498519999999,"Postal":1040,"City":"Vienna","NumHouseholds":1,"NumPeople":3,"NumParcelsToday_1":1,"TotalParcelWeightKG_1":1.8600000000000001}},{"type":"Feature","id":106,"geometry":{"type":"Point","coordinates":[16.365882910000039,48.196897800000045]},"properties":{"OBJECTID":106,"SOURCE_ID":4647,"TotalParcelWeightKG":0.23999999999999999,"NumParcelsToday":2,"ZONE_ID":8,"Join_Count":1,"District":4,"Address":"Schleifmühlgasse 8, 1040","Longitude":16.36588291,"Latitude":48.196897800000002,"Postal":1040,"City":"Vienna","NumHouseholds":2,"NumPeople":3,"NumParcelsToday_1":2,"TotalParcelWeightKG_1":0.23999999999999999}},{"type":"Feature","id":107,"geometry":{"type":"Point","coordinates":[16.365362140000059,48.197008190000076]},"properties":{"OBJECTID":107,"SOURCE_ID":4648,"TotalParcelWeightKG":0.84999999999999998,"NumParcelsToday":1,"ZONE_ID":8,"Join_Count":1,"District":4,"Address":"Schleifmühlgasse 9, 1040","Longitude":16.365362139999998,"Latitude":48.197008189999998,"Postal":1040,"City":"Vienna","NumHouseholds":1,"NumPeople":2,"NumParcelsToday_1":1,"TotalParcelWeightKG_1":0.84999999999999998}},{"type":"Feature","id":108,"geometry":{"type":"Point","coordinates":[16.367534200000023,48.193814850000081]},"properties":{"OBJECTID":108,"SOURCE_ID":4649,"TotalParcelWeightKG":0.5,"NumParcelsToday":1,"ZONE_ID":8,"Join_Count":1,"District":4,"Address":"Schlüsselgasse 1/1, 1040","Longitude":16.367534200000001,"Latitude":48.193814850000003,"Postal":1040,"City":"Vienna","NumHouseholds":1,"NumPeople":2,"NumParcelsToday_1":1,"TotalParcelWeightKG_1":0.5}},{"type":"Feature","id":109,"geometry":{"type":"Point","coordinates":[16.36454929000007,48.194128780000028]},"properties":{"OBJECTID":109,"SOURCE_ID":4666,"TotalParcelWeightKG":4.6600000000000001,"NumParcelsToday":1,"ZONE_ID":8,"Join_Count":1,"District":4,"Address":"Schäffergasse 11, 1040","Longitude":16.364549289999999,"Latitude":48.19412878,"Postal":1040,"City":"Vienna","NumHouseholds":1,"NumPeople":3,"NumParcelsToday_1":1,"TotalParcelWeightKG_1":4.6600000000000001}},{"type":"Feature","id":110,"geometry":{"type":"Point","coordinates":[16.364717990000031,48.194195010000044]},"properties":{"OBJECTID":110,"SOURCE_ID":4670,"TotalParcelWeightKG":1.6699999999999999,"NumParcelsToday":1,"ZONE_ID":8,"Join_Count":1,"District":4,"Address":"Schäffergasse 9, 1040","Longitude":16.364717989999999,"Latitude":48.194195010000001,"Postal":1040,"City":"Vienna","NumHouseholds":1,"NumPeople":1,"NumParcelsToday_1":1,"TotalParcelWeightKG_1":1.6699999999999999}},{"type":"Feature","id":111,"geometry":{"type":"Point","coordinates":[16.367952330000037,48.193723280000029]},"properties":{"OBJECTID":111,"SOURCE_ID":4723,"TotalParcelWeightKG":0.94999999999999996,"NumParcelsToday":1,"ZONE_ID":8,"Join_Count":1,"District":4,"Address":"U-Bahn Station Taubstummengasse STATION, 1040","Longitude":16.367952330000001,"Latitude":48.19372328,"Postal":1040,"City":"Vienna","NumHouseholds":1,"NumPeople":3,"NumParcelsToday_1":1,"TotalParcelWeightKG_1":0.94999999999999996}},{"type":"Feature","id":112,"geometry":{"type":"Point","coordinates":[16.366830540000024,48.194607250000047]},"properties":{"OBJECTID":112,"SOURCE_ID":4734,"TotalParcelWeightKG":1.8200000000000001,"NumParcelsToday":1,"ZONE_ID":8,"Join_Count":1,"District":4,"Address":"Waaggasse 1, 1040","Longitude":16.366830539999999,"Latitude":48.194607249999997,"Postal":1040,"City":"Vienna","NumHouseholds":1,"NumPeople":2,"NumParcelsToday_1":1,"TotalParcelWeightKG_1":1.8200000000000001}},{"type":"Feature","id":113,"geometry":{"type":"Point","coordinates":[16.364949960000047,48.195291860000054]},"properties":{"OBJECTID":113,"SOURCE_ID":4735,"TotalParcelWeightKG":0.75,"NumParcelsToday":1,"ZONE_ID":8,"Join_Count":1,"District":4,"Address":"Waaggasse 10, 1040","Longitude":16.364949960000001,"Latitude":48.195291859999998,"Postal":1040,"City":"Vienna","NumHouseholds":1,"NumPeople":1,"NumParcelsToday_1":1,"TotalParcelWeightKG_1":0.75}},{"type":"Feature","id":114,"geometry":{"type":"Point","coordinates":[16.364807820000067,48.195106360000068]},"properties":{"OBJECTID":114,"SOURCE_ID":4736,"TotalParcelWeightKG":2,"NumParcelsToday":1,"ZONE_ID":8,"Join_Count":1,"District":4,"Address":"Waaggasse 11, 1040","Longitude":16.364807819999999,"Latitude":48.195106359999997,"Postal":1040,"City":"Vienna","NumHouseholds":1,"NumPeople":5,"NumParcelsToday_1":1,"TotalParcelWeightKG_1":2}},{"type":"Feature","id":115,"geometry":{"type":"Point","coordinates":[16.364385460000051,48.195363490000034]},"properties":{"OBJECTID":115,"SOURCE_ID":4737,"TotalParcelWeightKG":0.25,"NumParcelsToday":1,"ZONE_ID":8,"Join_Count":1,"District":4,"Address":"Waaggasse 12, 1040","Longitude":16.364385460000001,"Latitude":48.195363489999998,"Postal":1040,"City":"Vienna","NumHouseholds":1,"NumPeople":2,"NumParcelsToday_1":1,"TotalParcelWeightKG_1":0.25}},{"type":"Feature","id":116,"geometry":{"type":"Point","coordinates":[16.364543930000025,48.195141140000032]},"properties":{"OBJECTID":116,"SOURCE_ID":4738,"TotalParcelWeightKG":0.070000000000000007,"NumParcelsToday":1,"ZONE_ID":8,"Join_Count":1,"District":4,"Address":"Waaggasse 13, 1040","Longitude":16.36454393,"Latitude":48.195141139999997,"Postal":1040,"City":"Vienna","NumHouseholds":1,"NumPeople":2,"NumParcelsToday_1":1,"TotalParcelWeightKG_1":0.070000000000000007}},{"type":"Feature","id":117,"geometry":{"type":"Point","coordinates":[16.366520250000065,48.19463845000007]},"properties":{"OBJECTID":117,"SOURCE_ID":4739,"TotalParcelWeightKG":2.23,"NumParcelsToday":3,"ZONE_ID":8,"Join_Count":1,"District":4,"Address":"Waaggasse 3, 1040","Longitude":16.366520250000001,"Latitude":48.194638449999999,"Postal":1040,"City":"Vienna","NumHouseholds":3,"NumPeople":9,"NumParcelsToday_1":3,"TotalParcelWeightKG_1":2.23}},{"type":"Feature","id":118,"geometry":{"type":"Point","coordinates":[16.365839010000059,48.195182000000045]},"properties":{"OBJECTID":118,"SOURCE_ID":4740,"TotalParcelWeightKG":2.3399999999999999,"NumParcelsToday":1,"ZONE_ID":8,"Join_Count":1,"District":4,"Address":"Waaggasse 4, 1040","Longitude":16.365839009999998,"Latitude":48.195182000000003,"Postal":1040,"City":"Vienna","NumHouseholds":1,"NumPeople":2,"NumParcelsToday_1":1,"TotalParcelWeightKG_1":2.3399999999999999}},{"type":"Feature","id":119,"geometry":{"type":"Point","coordinates":[16.365098870000054,48.195066990000043]},"properties":{"OBJECTID":119,"SOURCE_ID":4741,"TotalParcelWeightKG":0.25,"NumParcelsToday":1,"ZONE_ID":8,"Join_Count":1,"District":4,"Address":"Waaggasse 9, 1040","Longitude":16.365098870000001,"Latitude":48.195066990000001,"Postal":1040,"City":"Vienna","NumHouseholds":1,"NumPeople":2,"NumParcelsToday_1":1,"TotalParcelWeightKG_1":0.25}},{"type":"Feature","id":120,"geometry":{"type":"Point","coordinates":[16.367251530000033,48.197008500000038]},"properties":{"OBJECTID":120,"SOURCE_ID":4782,"TotalParcelWeightKG":1.2,"NumParcelsToday":2,"ZONE_ID":8,"Join_Count":1,"District":4,"Address":"Wiedner Hauptstraße 16, 1040","Longitude":16.367251530000001,"Latitude":48.197008500000003,"Postal":1040,"City":"Vienna","NumHouseholds":2,"NumPeople":7,"NumParcelsToday_1":2,"TotalParcelWeightKG_1":1.2}},{"type":"Feature","id":121,"geometry":{"type":"Point","coordinates":[16.367461610000078,48.195856870000057]},"properties":{"OBJECTID":121,"SOURCE_ID":4783,"TotalParcelWeightKG":2.8399999999999999,"NumParcelsToday":3,"ZONE_ID":8,"Join_Count":2,"District":4,"Address":"Paulanergasse 6(PFARRHOF), 1040","Longitude":16.367461609999999,"Latitude":48.19585687,"Postal":1040,"City":"Vienna","NumHouseholds":2,"NumPeople":6,"NumParcelsToday_1":2,"TotalParcelWeightKG_1":2.3100000000000001}},{"type":"Feature","id":122,"geometry":{"type":"Point","coordinates":[16.366662040000051,48.195796290000033]},"properties":{"OBJECTID":122,"SOURCE_ID":4784,"TotalParcelWeightKG":0.48999999999999999,"NumParcelsToday":1,"ZONE_ID":8,"Join_Count":1,"District":4,"Address":"Wiedner Hauptstraße 28, 1040","Longitude":16.366662040000001,"Latitude":48.195796289999997,"Postal":1040,"City":"Vienna","NumHouseholds":1,"NumPeople":2,"NumParcelsToday_1":1,"TotalParcelWeightKG_1":0.48999999999999999}},{"type":"Feature","id":123,"geometry":{"type":"Point","coordinates":[16.366913700000055,48.195553680000046]},"properties":{"OBJECTID":123,"SOURCE_ID":4785,"TotalParcelWeightKG":0.5,"NumParcelsToday":1,"ZONE_ID":8,"Join_Count":1,"District":4,"Address":"Wiedner Hauptstraße 30, 1040","Longitude":16.366913700000001,"Latitude":48.195553680000003,"Postal":1040,"City":"Vienna","NumHouseholds":1,"NumPeople":3,"NumParcelsToday_1":1,"TotalParcelWeightKG_1":0.5}},{"type":"Feature","id":124,"geometry":{"type":"Point","coordinates":[16.366842770000062,48.195264920000056]},"properties":{"OBJECTID":124,"SOURCE_ID":4786,"TotalParcelWeightKG":4.1699999999999999,"NumParcelsToday":1,"ZONE_ID":8,"Join_Count":1,"District":4,"Address":"Wiedner Hauptstraße 34, 1040","Longitude":16.366842770000002,"Latitude":48.19526492,"Postal":1040,"City":"Vienna","NumHouseholds":1,"NumPeople":2,"NumParcelsToday_1":1,"TotalParcelWeightKG_1":4.1699999999999999}},{"type":"Feature","id":125,"geometry":{"type":"Point","coordinates":[16.367510320000065,48.194561480000061]},"properties":{"OBJECTID":125,"SOURCE_ID":4787,"TotalParcelWeightKG":1.01,"NumParcelsToday":2,"ZONE_ID":8,"Join_Count":1,"District":4,"Address":"Wiedner Hauptstraße 35/1, 1040","Longitude":16.367510320000001,"Latitude":48.194561479999997,"Postal":1040,"City":"Vienna","NumHouseholds":2,"NumPeople":5,"NumParcelsToday_1":2,"TotalParcelWeightKG_1":1.01}},{"type":"Feature","id":126,"geometry":{"type":"Point","coordinates":[16.367884570000058,48.194643480000082]},"properties":{"OBJECTID":126,"SOURCE_ID":4788,"TotalParcelWeightKG":2.6499999999999999,"NumParcelsToday":1,"ZONE_ID":8,"Join_Count":3,"District":4,"Address":"Floragasse 8/2, 1040","Longitude":16.367884570000001,"Latitude":48.194643480000003,"Postal":1040,"City":"Vienna","NumHouseholds":1,"NumPeople":3,"NumParcelsToday_1":1,"TotalParcelWeightKG_1":0.20999999999999999}},{"type":"Feature","id":127,"geometry":{"type":"Point","coordinates":[16.366706450000038,48.195155960000079]},"properties":{"OBJECTID":127,"SOURCE_ID":4789,"TotalParcelWeightKG":0.34999999999999998,"NumParcelsToday":1,"ZONE_ID":8,"Join_Count":1,"District":4,"Address":"Wiedner Hauptstraße 36/1, 1040","Longitude":16.366706449999999,"Latitude":48.195155960000001,"Postal":1040,"City":"Vienna","NumHouseholds":1,"NumPeople":3,"NumParcelsToday_1":1,"TotalParcelWeightKG_1":0.34999999999999998}},{"type":"Feature","id":128,"geometry":{"type":"Point","coordinates":[16.366175400000031,48.195150800000079]},"properties":{"OBJECTID":128,"SOURCE_ID":4790,"TotalParcelWeightKG":0.070000000000000007,"NumParcelsToday":1,"ZONE_ID":8,"Join_Count":1,"District":4,"Address":"Wiedner Hauptstraße 36/5, 1040","Longitude":16.366175399999999,"Latitude":48.1951508,"Postal":1040,"City":"Vienna","NumHouseholds":1,"NumPeople":3,"NumParcelsToday_1":1,"TotalParcelWeightKG_1":0.070000000000000007}},{"type":"Feature","id":129,"geometry":{"type":"Point","coordinates":[16.367457200000047,48.194152390000056]},"properties":{"OBJECTID":129,"SOURCE_ID":4791,"TotalParcelWeightKG":1.5600000000000001,"NumParcelsToday":1,"ZONE_ID":8,"Join_Count":1,"District":4,"Address":"Wiedner Hauptstraße 37/1, 1040","Longitude":16.3674572,"Latitude":48.194152389999999,"Postal":1040,"City":"Vienna","NumHouseholds":1,"NumPeople":1,"NumParcelsToday_1":1,"TotalParcelWeightKG_1":1.5600000000000001}},{"type":"Feature","id":130,"geometry":{"type":"Point","coordinates":[16.367563970000049,48.194313880000038]},"properties":{"OBJECTID":130,"SOURCE_ID":4792,"TotalParcelWeightKG":2.5600000000000001,"NumParcelsToday":2,"ZONE_ID":8,"Join_Count":1,"District":4,"Address":"Wiedner Hauptstraße 37/2, 1040","Longitude":16.367563969999999,"Latitude":48.194313880000003,"Postal":1040,"City":"Vienna","NumHouseholds":1,"NumPeople":4,"NumParcelsToday_1":2,"TotalParcelWeightKG_1":2.5600000000000001}},{"type":"Feature","id":131,"geometry":{"type":"Point","coordinates":[16.367606260000059,48.193963130000043]},"properties":{"OBJECTID":131,"SOURCE_ID":4793,"TotalParcelWeightKG":0.10000000000000001,"NumParcelsToday":1,"ZONE_ID":8,"Join_Count":1,"District":4,"Address":"Wiedner Hauptstraße 37/3, 1040","Longitude":16.367606259999999,"Latitude":48.19396313,"Postal":1040,"City":"Vienna","NumHouseholds":1,"NumPeople":4,"NumParcelsToday_1":1,"TotalParcelWeightKG_1":0.10000000000000001}},{"type":"Feature","id":132,"geometry":{"type":"Point","coordinates":[16.367519860000073,48.19367735000003]},"properties":{"OBJECTID":132,"SOURCE_ID":4794,"TotalParcelWeightKG":0.089999999999999997,"NumParcelsToday":1,"ZONE_ID":8,"Join_Count":1,"District":4,"Address":"Wiedner Hauptstraße 39/2, 1040","Longitude":16.367519860000002,"Latitude":48.193677350000002,"Postal":1040,"City":"Vienna","NumHouseholds":1,"NumPeople":2,"NumParcelsToday_1":1,"TotalParcelWeightKG_1":0.089999999999999997}},{"type":"Feature","id":133,"geometry":{"type":"Point","coordinates":[16.367775000000051,48.193865870000081]},"properties":{"OBJECTID":133,"SOURCE_ID":4795,"TotalParcelWeightKG":0.92000000000000004,"NumParcelsToday":1,"ZONE_ID":8,"Join_Count":1,"District":4,"Address":"Wiedner Hauptstraße 39/4, 1040","Longitude":16.367775000000002,"Latitude":48.193865870000003,"Postal":1040,"City":"Vienna","NumHouseholds":1,"NumPeople":4,"NumParcelsToday_1":1,"TotalParcelWeightKG_1":0.92000000000000004}},{"type":"Feature","id":134,"geometry":{"type":"Point","coordinates":[16.366858230000048,48.194115590000081]},"properties":{"OBJECTID":134,"SOURCE_ID":4796,"TotalParcelWeightKG":0.88,"NumParcelsToday":1,"ZONE_ID":8,"Join_Count":1,"District":4,"Address":"Wiedner Hauptstraße 40/2, 1040","Longitude":16.366858229999998,"Latitude":48.194115590000003,"Postal":1040,"City":"Vienna","NumHouseholds":1,"NumPeople":5,"NumParcelsToday_1":1,"TotalParcelWeightKG_1":0.88}},{"type":"Feature","id":135,"geometry":{"type":"Point","coordinates":[16.367613290000065,48.193363100000056]},"properties":{"OBJECTID":135,"SOURCE_ID":4797,"TotalParcelWeightKG":2.1699999999999999,"NumParcelsToday":3,"ZONE_ID":8,"Join_Count":1,"District":4,"Address":"Wiedner Hauptstraße 41, 1040","Longitude":16.367613290000001,"Latitude":48.193363099999999,"Postal":1040,"City":"Vienna","NumHouseholds":3,"NumPeople":11,"NumParcelsToday_1":3,"TotalParcelWeightKG_1":2.1699999999999999}},{"type":"Feature","id":136,"geometry":{"type":"Point","coordinates":[16.366832980000027,48.193298380000044]},"properties":{"OBJECTID":136,"SOURCE_ID":4798,"TotalParcelWeightKG":1.3600000000000001,"NumParcelsToday":1,"ZONE_ID":8,"Join_Count":1,"District":4,"Address":"Wiedner Hauptstraße 46, 1040","Longitude":16.366832980000002,"Latitude":48.193298380000002,"Postal":1040,"City":"Vienna","NumHouseholds":1,"NumPeople":4,"NumParcelsToday_1":1,"TotalParcelWeightKG_1":1.3600000000000001}},{"type":"Feature","id":137,"geometry":{"type":"Point","coordinates":[16.367252710000059,48.192757150000034]},"properties":{"OBJECTID":137,"SOURCE_ID":4799,"TotalParcelWeightKG":0.11,"NumParcelsToday":1,"ZONE_ID":8,"Join_Count":1,"District":4,"Address":"Wiedner Hauptstraße 49, 1040","Longitude":16.367252709999999,"Latitude":48.192757149999998,"Postal":1040,"City":"Vienna","NumHouseholds":1,"NumPeople":2,"NumParcelsToday_1":1,"TotalParcelWeightKG_1":0.11}},{"type":"Feature","id":138,"geometry":{"type":"Point","coordinates":[16.366621010000074,48.192853280000065]},"properties":{"OBJECTID":138,"SOURCE_ID":4800,"TotalParcelWeightKG":0.28999999999999998,"NumParcelsToday":1,"ZONE_ID":8,"Join_Count":1,"District":4,"Address":"Wiedner Hauptstraße 50/3, 1040","Longitude":16.366621009999999,"Latitude":48.192853280000001,"Postal":1040,"City":"Vienna","NumHouseholds":1,"NumPeople":1,"NumParcelsToday_1":1,"TotalParcelWeightKG_1":0.28999999999999998}},{"type":"Feature","id":139,"geometry":{"type":"Point","coordinates":[16.36715606000007,48.191952640000068]},"properties":{"OBJECTID":139,"SOURCE_ID":4801,"TotalParcelWeightKG":1.8500000000000001,"NumParcelsToday":1,"ZONE_ID":8,"Join_Count":1,"District":4,"Address":"Wiedner Hauptstraße 53, 1040","Longitude":16.367156059999999,"Latitude":48.191952639999997,"Postal":1040,"City":"Vienna","NumHouseholds":1,"NumPeople":2,"NumParcelsToday_1":1,"TotalParcelWeightKG_1":1.8500000000000001}},{"type":"Feature","id":140,"geometry":{"type":"Point","coordinates":[16.366575230000024,48.192087790000073]},"properties":{"OBJECTID":140,"SOURCE_ID":4802,"TotalParcelWeightKG":2.4700000000000002,"NumParcelsToday":1,"ZONE_ID":8,"Join_Count":1,"District":4,"Address":"Wiedner Hauptstraße 54, 1040","Longitude":16.366575229999999,"Latitude":48.192087790000002,"Postal":1040,"City":"Vienna","NumHouseholds":1,"NumPeople":2,"NumParcelsToday_1":1,"TotalParcelWeightKG_1":2.4700000000000002}},{"type":"Feature","id":141,"geometry":{"type":"Point","coordinates":[16.366331770000045,48.19160923000004]},"properties":{"OBJECTID":141,"SOURCE_ID":4804,"TotalParcelWeightKG":0.87,"NumParcelsToday":2,"ZONE_ID":8,"Join_Count":2,"District":4,"Address":"Große Neugasse 2, 1040","Longitude":16.366331769999999,"Latitude":48.191609229999997,"Postal":1040,"City":"Vienna","NumHouseholds":1,"NumPeople":4,"NumParcelsToday_1":1,"TotalParcelWeightKG_1":0.97999999999999998}},{"type":"Feature","id":142,"geometry":{"type":"Point","coordinates":[16.362953900000036,48.201043420000076]},"properties":{"OBJECTID":142,"SOURCE_ID":5958,"TotalParcelWeightKG":0.5,"NumParcelsToday":1,"ZONE_ID":8,"Join_Count":1,"District":6,"Address":"Getreidemarkt 9 Obj. 2, 1060","Longitude":16.362953900000001,"Latitude":48.201043419999998,"Postal":1060,"City":"Vienna","NumHouseholds":1,"NumPeople":5,"NumParcelsToday_1":1,"TotalParcelWeightKG_1":0.5}},{"type":"Feature","id":143,"geometry":{"type":"Point","coordinates":[16.364317070000027,48.200626330000034]},"properties":{"OBJECTID":143,"SOURCE_ID":6085,"TotalParcelWeightKG":0.53000000000000003,"NumParcelsToday":2,"ZONE_ID":8,"Join_Count":1,"District":6,"Address":"Lehargasse 1, 1060","Longitude":16.364317069999998,"Latitude":48.200626329999999,"Postal":1060,"City":"Vienna","NumHouseholds":2,"NumPeople":3,"NumParcelsToday_1":2,"TotalParcelWeightKG_1":0.53000000000000003}},{"type":"Feature","id":144,"geometry":{"type":"Point","coordinates":[16.363164190000077,48.199834660000079]},"properties":{"OBJECTID":144,"SOURCE_ID":6087,"TotalParcelWeightKG":2,"NumParcelsToday":1,"ZONE_ID":8,"Join_Count":1,"District":6,"Address":"Lehargasse 7, 1060","Longitude":16.363164189999999,"Latitude":48.19983466,"Postal":1060,"City":"Vienna","NumHouseholds":1,"NumPeople":3,"NumParcelsToday_1":1,"TotalParcelWeightKG_1":2}},{"type":"Feature","id":145,"geometry":{"type":"Point","coordinates":[16.363818010000045,48.199172790000034]},"properties":{"OBJECTID":145,"SOURCE_ID":6109,"TotalParcelWeightKG":1.9100000000000001,"NumParcelsToday":2,"ZONE_ID":8,"Join_Count":1,"District":6,"Address":"Linke Wienzeile 10, 1060","Longitude":16.363818009999999,"Latitude":48.199172789999999,"Postal":1060,"City":"Vienna","NumHouseholds":2,"NumPeople":4,"NumParcelsToday_1":2,"TotalParcelWeightKG_1":1.9100000000000001}},{"type":"Feature","id":146,"geometry":{"type":"Point","coordinates":[16.363652770000044,48.199085770000067]},"properties":{"OBJECTID":146,"SOURCE_ID":6114,"TotalParcelWeightKG":0.32000000000000001,"NumParcelsToday":1,"ZONE_ID":8,"Join_Count":1,"District":6,"Address":"Linke Wienzeile 12, 1060","Longitude":16.363652770000002,"Latitude":48.199085770000003,"Postal":1060,"City":"Vienna","NumHouseholds":1,"NumPeople":4,"NumParcelsToday_1":1,"TotalParcelWeightKG_1":0.32000000000000001}},{"type":"Feature","id":147,"geometry":{"type":"Point","coordinates":[16.363248150000061,48.198867160000077]},"properties":{"OBJECTID":147,"SOURCE_ID":6125,"TotalParcelWeightKG":0.26000000000000001,"NumParcelsToday":1,"ZONE_ID":8,"Join_Count":1,"District":6,"Address":"Linke Wienzeile 16, 1060","Longitude":16.36324815,"Latitude":48.198867159999999,"Postal":1060,"City":"Vienna","NumHouseholds":1,"NumPeople":2,"NumParcelsToday_1":1,"TotalParcelWeightKG_1":0.26000000000000001}},{"type":"Feature","id":148,"geometry":{"type":"Point","coordinates":[16.364814820000049,48.199926980000043]},"properties":{"OBJECTID":148,"SOURCE_ID":6213,"TotalParcelWeightKG":1.74,"NumParcelsToday":2,"ZONE_ID":8,"Join_Count":1,"District":6,"Address":"Millöckergasse 2/1, 1060","Longitude":16.364814819999999,"Latitude":48.199926980000001,"Postal":1060,"City":"Vienna","NumHouseholds":2,"NumPeople":3,"NumParcelsToday_1":2,"TotalParcelWeightKG_1":1.74}},{"type":"Feature","id":149,"geometry":{"type":"Point","coordinates":[16.365199680000046,48.200155400000028]},"properties":{"OBJECTID":149,"SOURCE_ID":6292,"TotalParcelWeightKG":0.10000000000000001,"NumParcelsToday":1,"ZONE_ID":8,"Join_Count":1,"District":6,"Address":"Papagenogasse 1, 1060","Longitude":16.36519968,"Latitude":48.2001554,"Postal":1060,"City":"Vienna","NumHouseholds":1,"NumPeople":4,"NumParcelsToday_1":1,"TotalParcelWeightKG_1":0.10000000000000001}},{"type":"Feature","id":150,"geometry":{"type":"Point","coordinates":[16.364621980000038,48.199800770000081]},"properties":{"OBJECTID":150,"SOURCE_ID":6293,"TotalParcelWeightKG":0.73999999999999999,"NumParcelsToday":1,"ZONE_ID":8,"Join_Count":1,"District":6,"Address":"Papagenogasse 3/2, 1060","Longitude":16.364621979999999,"Latitude":48.199800770000003,"Postal":1060,"City":"Vienna","NumHouseholds":1,"NumPeople":2,"NumParcelsToday_1":1,"TotalParcelWeightKG_1":0.73999999999999999}},{"type":"Feature","id":151,"geometry":{"type":"Point","coordinates":[16.364581550000025,48.199912380000058]},"properties":{"OBJECTID":151,"SOURCE_ID":6294,"TotalParcelWeightKG":0.25,"NumParcelsToday":1,"ZONE_ID":8,"Join_Count":1,"District":6,"Address":"Papagenogasse 3/3, 1060","Longitude":16.36458155,"Latitude":48.199912380000001,"Postal":1060,"City":"Vienna","NumHouseholds":1,"NumPeople":2,"NumParcelsToday_1":1,"TotalParcelWeightKG_1":0.25}},{"type":"Feature","id":152,"geometry":{"type":"Point","coordinates":[16.364293260000068,48.199889520000056]},"properties":{"OBJECTID":152,"SOURCE_ID":6295,"TotalParcelWeightKG":0.28000000000000003,"NumParcelsToday":1,"ZONE_ID":8,"Join_Count":1,"District":6,"Address":"Papagenogasse 5, 1060","Longitude":16.36429326,"Latitude":48.199889519999999,"Postal":1060,"City":"Vienna","NumHouseholds":1,"NumPeople":4,"NumParcelsToday_1":1,"TotalParcelWeightKG_1":0.28000000000000003}}]
}