{
  "type" : "FeatureCollection",
  "features" : [{"type":"Feature","id":1,"geometry":{"type":"Point","coordinates":[16.403747580000072,48.202831280000055]},"properties":{"OBJECTID":1,"SOURCE_ID":428,"TotalParcelWeightKG":0.32000000000000001,"NumParcelsToday":1,"ZONE_ID":55,"Join_Count":2,"District":2,"Address":"Brandgasse 1, 1020","Longitude":16.403747580000001,"Latitude":48.202831279999998,"Postal":1020,"City":"Vienna","NumHouseholds":1,"NumPeople":3,"NumParcelsToday_1":1,"TotalParcelWeightKG_1":0.32000000000000001}},{"type":"Feature","id":2,"geometry":{"type":"Point","coordinates":[16.403903270000058,48.203165820000038]},"properties":{"OBJECTID":2,"SOURCE_ID":429,"TotalParcelWeightKG":4.7599999999999998,"NumParcelsToday":1,"ZONE_ID":55,"Join_Count":1,"District":2,"Address":"Brandgasse 3, 1020","Longitude":16.403903270000001,"Latitude":48.203165820000002,"Postal":1020,"City":"Vienna","NumHouseholds":1,"NumPeople":2,"NumParcelsToday_1":1,"TotalParcelWeightKG_1":4.7599999999999998}},{"type":"Feature","id":3,"geometry":{"type":"Point","coordinates":[16.404403570000056,48.203053200000056]},"properties":{"OBJECTID":3,"SOURCE_ID":430,"TotalParcelWeightKG":0.91000000000000003,"NumParcelsToday":1,"ZONE_ID":55,"Join_Count":2,"District":2,"Address":"Brandgasse 4, 1020","Longitude":16.404403569999999,"Latitude":48.203053199999999,"Postal":1020,"City":"Vienna","NumHouseholds":1,"NumPeople":3,"NumParcelsToday_1":1,"TotalParcelWeightKG_1":0.91000000000000003}},{"type":"Feature","id":4,"geometry":{"type":"Point","coordinates":[16.403350770000031,48.20328746000007]},"properties":{"OBJECTID":4,"SOURCE_ID":452,"TotalParcelWeightKG":5.6100000000000003,"NumParcelsToday":2,"ZONE_ID":55,"Join_Count":1,"District":2,"Address":"Böcklinstraße 100, 1020","Longitude":16.403350769999999,"Latitude":48.203287459999999,"Postal":1020,"City":"Vienna","NumHouseholds":2,"NumPeople":4,"NumParcelsToday_1":2,"TotalParcelWeightKG_1":5.6100000000000003}},{"type":"Feature","id":5,"geometry":{"type":"Point","coordinates":[16.404403570000056,48.203053200000056]},"properties":{"OBJECTID":5,"SOURCE_ID":453,"TotalParcelWeightKG":0.28999999999999998,"NumParcelsToday":1,"ZONE_ID":55,"Join_Count":2,"District":2,"Address":"Brandgasse 4, 1020","Longitude":16.404403569999999,"Latitude":48.203053199999999,"Postal":1020,"City":"Vienna","NumHouseholds":1,"NumPeople":3,"NumParcelsToday_1":1,"TotalParcelWeightKG_1":0.91000000000000003}},{"type":"Feature","id":6,"geometry":{"type":"Point","coordinates":[16.404667430000075,48.20298353000004]},"properties":{"OBJECTID":6,"SOURCE_ID":454,"TotalParcelWeightKG":1.2,"NumParcelsToday":2,"ZONE_ID":55,"Join_Count":1,"District":2,"Address":"Böcklinstraße 108, 1020","Longitude":16.40466743,"Latitude":48.202983529999997,"Postal":1020,"City":"Vienna","NumHouseholds":2,"NumPeople":7,"NumParcelsToday_1":2,"TotalParcelWeightKG_1":1.2}},{"type":"Feature","id":7,"geometry":{"type":"Point","coordinates":[16.403872600000057,48.203476820000049]},"properties":{"OBJECTID":7,"SOURCE_ID":477,"TotalParcelWeightKG":0.5,"NumParcelsToday":1,"ZONE_ID":55,"Join_Count":2,"District":2,"Address":"Böcklinstraße 67-75/10, 1020","Longitude":16.4038726,"Latitude":48.203476819999999,"Postal":1020,"City":"Vienna","NumHouseholds":1,"NumPeople":4,"NumParcelsToday_1":1,"TotalParcelWeightKG_1":0.5}},{"type":"Feature","id":8,"geometry":{"type":"Point","coordinates":[16.404575710000074,48.203313990000026]},"properties":{"OBJECTID":8,"SOURCE_ID":478,"TotalParcelWeightKG":0.46999999999999997,"NumParcelsToday":1,"ZONE_ID":55,"Join_Count":1,"District":2,"Address":"Böcklinstraße 67-75/6, 1020","Longitude":16.40457571,"Latitude":48.203313989999998,"Postal":1020,"City":"Vienna","NumHouseholds":1,"NumPeople":2,"NumParcelsToday_1":1,"TotalParcelWeightKG_1":0.46999999999999997}},{"type":"Feature","id":9,"geometry":{"type":"Point","coordinates":[16.404665260000058,48.203473660000043]},"properties":{"OBJECTID":9,"SOURCE_ID":479,"TotalParcelWeightKG":0.51000000000000001,"NumParcelsToday":2,"ZONE_ID":55,"Join_Count":1,"District":2,"Address":"Böcklinstraße 67-75/7, 1020","Longitude":16.404665260000002,"Latitude":48.20347366,"Postal":1020,"City":"Vienna","NumHouseholds":1,"NumPeople":2,"NumParcelsToday_1":2,"TotalParcelWeightKG_1":0.51000000000000001}},{"type":"Feature","id":10,"geometry":{"type":"Point","coordinates":[16.403023140000073,48.203867450000075]},"properties":{"OBJECTID":10,"SOURCE_ID":751,"TotalParcelWeightKG":0.28999999999999998,"NumParcelsToday":1,"ZONE_ID":55,"Join_Count":1,"District":2,"Address":"Friedensgasse 6, 1020","Longitude":16.403023139999998,"Latitude":48.203867449999997,"Postal":1020,"City":"Vienna","NumHouseholds":1,"NumPeople":2,"NumParcelsToday_1":1,"TotalParcelWeightKG_1":0.28999999999999998}},{"type":"Feature","id":11,"geometry":{"type":"Point","coordinates":[16.405595950000077,48.203183340000066]},"properties":{"OBJECTID":11,"SOURCE_ID":1334,"TotalParcelWeightKG":0.25,"NumParcelsToday":1,"ZONE_ID":55,"Join_Count":1,"District":2,"Address":"Lukschgasse 5, 1020","Longitude":16.405595949999999,"Latitude":48.203183340000002,"Postal":1020,"City":"Vienna","NumHouseholds":1,"NumPeople":5,"NumParcelsToday_1":1,"TotalParcelWeightKG_1":0.25}},{"type":"Feature","id":12,"geometry":{"type":"Point","coordinates":[16.403872600000057,48.203476820000049]},"properties":{"OBJECTID":12,"SOURCE_ID":1809,"TotalParcelWeightKG":2.4900000000000002,"NumParcelsToday":2,"ZONE_ID":55,"Join_Count":2,"District":2,"Address":"Böcklinstraße 67-75/10, 1020","Longitude":16.4038726,"Latitude":48.203476819999999,"Postal":1020,"City":"Vienna","NumHouseholds":1,"NumPeople":4,"NumParcelsToday_1":1,"TotalParcelWeightKG_1":0.5}},{"type":"Feature","id":13,"geometry":{"type":"Point","coordinates":[16.403580340000076,48.203942660000052]},"properties":{"OBJECTID":13,"SOURCE_ID":1810,"TotalParcelWeightKG":0.98999999999999999,"NumParcelsToday":1,"ZONE_ID":55,"Join_Count":1,"District":2,"Address":"Rustenschacherallee 44-56/12, 1020","Longitude":16.403580340000001,"Latitude":48.203942660000003,"Postal":1020,"City":"Vienna","NumHouseholds":1,"NumPeople":1,"NumParcelsToday_1":1,"TotalParcelWeightKG_1":0.98999999999999999}},{"type":"Feature","id":14,"geometry":{"type":"Point","coordinates":[16.402942060000044,48.20297024000007]},"properties":{"OBJECTID":14,"SOURCE_ID":1905,"TotalParcelWeightKG":29.699999999999999,"NumParcelsToday":1,"ZONE_ID":55,"Join_Count":1,"District":2,"Address":"Schüttelstraße 85, 1020","Longitude":16.402942060000001,"Latitude":48.202970239999999,"Postal":1020,"City":"Vienna","NumHouseholds":1,"NumPeople":2,"NumParcelsToday_1":1,"TotalParcelWeightKG_1":29.699999999999999}},{"type":"Feature","id":15,"geometry":{"type":"Point","coordinates":[16.403206760000046,48.20292395000007]},"properties":{"OBJECTID":15,"SOURCE_ID":1906,"TotalParcelWeightKG":4.8899999999999997,"NumParcelsToday":2,"ZONE_ID":55,"Join_Count":1,"District":2,"Address":"Schüttelstraße 87, 1020","Longitude":16.40320676,"Latitude":48.202923949999999,"Postal":1020,"City":"Vienna","NumHouseholds":2,"NumPeople":7,"NumParcelsToday_1":2,"TotalParcelWeightKG_1":4.8899999999999997}},{"type":"Feature","id":16,"geometry":{"type":"Point","coordinates":[16.403379460000053,48.202897050000047]},"properties":{"OBJECTID":16,"SOURCE_ID":1907,"TotalParcelWeightKG":1.6100000000000001,"NumParcelsToday":1,"ZONE_ID":55,"Join_Count":1,"District":2,"Address":"Schüttelstraße 89, 1020","Longitude":16.40337946,"Latitude":48.202897049999997,"Postal":1020,"City":"Vienna","NumHouseholds":1,"NumPeople":4,"NumParcelsToday_1":1,"TotalParcelWeightKG_1":1.6100000000000001}},{"type":"Feature","id":17,"geometry":{"type":"Point","coordinates":[16.403747580000072,48.202831280000055]},"properties":{"OBJECTID":17,"SOURCE_ID":1912,"TotalParcelWeightKG":0.78000000000000003,"NumParcelsToday":1,"ZONE_ID":55,"Join_Count":2,"District":2,"Address":"Brandgasse 1, 1020","Longitude":16.403747580000001,"Latitude":48.202831279999998,"Postal":1020,"City":"Vienna","NumHouseholds":1,"NumPeople":3,"NumParcelsToday_1":1,"TotalParcelWeightKG_1":0.32000000000000001}},{"type":"Feature","id":18,"geometry":{"type":"Point","coordinates":[16.403335300000037,48.199380610000048]},"properties":{"OBJECTID":18,"SOURCE_ID":2643,"TotalParcelWeightKG":0.67999999999999994,"NumParcelsToday":2,"ZONE_ID":55,"Join_Count":1,"District":3,"Address":"Dietrichgasse 24A, 1030","Longitude":16.403335299999998,"Latitude":48.199380609999999,"Postal":1030,"City":"Vienna","NumHouseholds":2,"NumPeople":3,"NumParcelsToday_1":2,"TotalParcelWeightKG_1":0.67999999999999994}},{"type":"Feature","id":19,"geometry":{"type":"Point","coordinates":[16.403543640000066,48.199257140000043]},"properties":{"OBJECTID":19,"SOURCE_ID":2644,"TotalParcelWeightKG":3.25,"NumParcelsToday":2,"ZONE_ID":55,"Join_Count":1,"District":3,"Address":"Dietrichgasse 24B, 1030","Longitude":16.403543639999999,"Latitude":48.19925714,"Postal":1030,"City":"Vienna","NumHouseholds":1,"NumPeople":5,"NumParcelsToday_1":2,"TotalParcelWeightKG_1":3.25}},{"type":"Feature","id":20,"geometry":{"type":"Point","coordinates":[16.404084190000049,48.198884150000026]},"properties":{"OBJECTID":20,"SOURCE_ID":2646,"TotalParcelWeightKG":3.9199999999999999,"NumParcelsToday":3,"ZONE_ID":55,"Join_Count":1,"District":3,"Address":"Dietrichgasse 28-30/5, 1030","Longitude":16.404084189999999,"Latitude":48.198884149999998,"Postal":1030,"City":"Vienna","NumHouseholds":3,"NumPeople":8,"NumParcelsToday_1":3,"TotalParcelWeightKG_1":3.9199999999999999}},{"type":"Feature","id":21,"geometry":{"type":"Point","coordinates":[16.404149010000026,48.198770430000081]},"properties":{"OBJECTID":21,"SOURCE_ID":2647,"TotalParcelWeightKG":3.7799999999999998,"NumParcelsToday":1,"ZONE_ID":55,"Join_Count":3,"District":3,"Address":"Dietrichgasse 28-30/6, 1030","Longitude":16.404149010000001,"Latitude":48.198770430000003,"Postal":1030,"City":"Vienna","NumHouseholds":1,"NumPeople":4,"NumParcelsToday_1":1,"TotalParcelWeightKG_1":3.7799999999999998}},{"type":"Feature","id":22,"geometry":{"type":"Point","coordinates":[16.403779920000034,48.199403860000075]},"properties":{"OBJECTID":22,"SOURCE_ID":2650,"TotalParcelWeightKG":0.46999999999999997,"NumParcelsToday":1,"ZONE_ID":55,"Join_Count":1,"District":3,"Address":"Dietrichgasse 33, 1030","Longitude":16.403779920000002,"Latitude":48.199403859999997,"Postal":1030,"City":"Vienna","NumHouseholds":1,"NumPeople":2,"NumParcelsToday_1":1,"TotalParcelWeightKG_1":0.46999999999999997}},{"type":"Feature","id":23,"geometry":{"type":"Point","coordinates":[16.404963620000046,48.198842070000069]},"properties":{"OBJECTID":23,"SOURCE_ID":2651,"TotalParcelWeightKG":0.63,"NumParcelsToday":1,"ZONE_ID":55,"Join_Count":2,"District":3,"Address":"Dietrichgasse 41, 1030","Longitude":16.40496362,"Latitude":48.198842069999998,"Postal":1030,"City":"Vienna","NumHouseholds":1,"NumPeople":2,"NumParcelsToday_1":1,"TotalParcelWeightKG_1":0.63}},{"type":"Feature","id":24,"geometry":{"type":"Point","coordinates":[16.407513020000067,48.198354530000074]},"properties":{"OBJECTID":24,"SOURCE_ID":2652,"TotalParcelWeightKG":0.34000000000000002,"NumParcelsToday":1,"ZONE_ID":55,"Join_Count":2,"District":3,"Address":"Dietrichgasse 49/2, 1030","Longitude":16.40751302,"Latitude":48.198354530000003,"Postal":1030,"City":"Vienna","NumHouseholds":1,"NumPeople":1,"NumParcelsToday_1":1,"TotalParcelWeightKG_1":0.34000000000000002}},{"type":"Feature","id":25,"geometry":{"type":"Point","coordinates":[16.406879810000078,48.198714650000056]},"properties":{"OBJECTID":25,"SOURCE_ID":2653,"TotalParcelWeightKG":0.73999999999999999,"NumParcelsToday":1,"ZONE_ID":55,"Join_Count":1,"District":3,"Address":"Dietrichgasse 49/4, 1030","Longitude":16.40687981,"Latitude":48.198714649999999,"Postal":1030,"City":"Vienna","NumHouseholds":1,"NumPeople":1,"NumParcelsToday_1":1,"TotalParcelWeightKG_1":0.73999999999999999}},{"type":"Feature","id":26,"geometry":{"type":"Point","coordinates":[16.406423640000071,48.19909597000003]},"properties":{"OBJECTID":26,"SOURCE_ID":2654,"TotalParcelWeightKG":0.44,"NumParcelsToday":1,"ZONE_ID":55,"Join_Count":1,"District":3,"Address":"Dietrichgasse 49/5, 1030","Longitude":16.40642364,"Latitude":48.199095970000002,"Postal":1030,"City":"Vienna","NumHouseholds":1,"NumPeople":3,"NumParcelsToday_1":1,"TotalParcelWeightKG_1":0.44}},{"type":"Feature","id":27,"geometry":{"type":"Point","coordinates":[16.408909150000056,48.196717430000035]},"properties":{"OBJECTID":27,"SOURCE_ID":2655,"TotalParcelWeightKG":0.93000000000000005,"NumParcelsToday":1,"ZONE_ID":55,"Join_Count":3,"District":3,"Address":"Dietrichgasse 59-63/16, 1030","Longitude":16.408909149999999,"Latitude":48.19671743,"Postal":1030,"City":"Vienna","NumHouseholds":1,"NumPeople":3,"NumParcelsToday_1":1,"TotalParcelWeightKG_1":0.93000000000000005}},{"type":"Feature","id":28,"geometry":{"type":"Point","coordinates":[16.408426680000048,48.197026290000053]},"properties":{"OBJECTID":28,"SOURCE_ID":2656,"TotalParcelWeightKG":0.029999999999999999,"NumParcelsToday":1,"ZONE_ID":55,"Join_Count":3,"District":3,"Address":"Dietrichgasse 59-63/19, 1030","Longitude":16.408426680000002,"Latitude":48.197026289999997,"Postal":1030,"City":"Vienna","NumHouseholds":1,"NumPeople":1,"NumParcelsToday_1":1,"TotalParcelWeightKG_1":0.029999999999999999}},{"type":"Feature","id":29,"geometry":{"type":"Point","coordinates":[16.407991290000041,48.197146890000056]},"properties":{"OBJECTID":29,"SOURCE_ID":2657,"TotalParcelWeightKG":4.9800000000000004,"NumParcelsToday":1,"ZONE_ID":55,"Join_Count":2,"District":3,"Address":"Dietrichgasse 59-63/22, 1030","Longitude":16.407991289999998,"Latitude":48.197146889999999,"Postal":1030,"City":"Vienna","NumHouseholds":1,"NumPeople":5,"NumParcelsToday_1":1,"TotalParcelWeightKG_1":4.9800000000000004}},{"type":"Feature","id":30,"geometry":{"type":"Point","coordinates":[16.402764320000074,48.19849830000004]},"properties":{"OBJECTID":30,"SOURCE_ID":2670,"TotalParcelWeightKG":0.37,"NumParcelsToday":1,"ZONE_ID":55,"Join_Count":1,"District":3,"Address":"Drorygasse 10-12/1, 1030","Longitude":16.402764319999999,"Latitude":48.198498299999997,"Postal":1030,"City":"Vienna","NumHouseholds":1,"NumPeople":4,"NumParcelsToday_1":1,"TotalParcelWeightKG_1":0.37}},{"type":"Feature","id":31,"geometry":{"type":"Point","coordinates":[16.403504060000046,48.198409380000044]},"properties":{"OBJECTID":31,"SOURCE_ID":2672,"TotalParcelWeightKG":0.85999999999999999,"NumParcelsToday":2,"ZONE_ID":55,"Join_Count":2,"District":3,"Address":"Drorygasse 10-12/5, 1030","Longitude":16.403504059999999,"Latitude":48.198409380000001,"Postal":1030,"City":"Vienna","NumHouseholds":2,"NumPeople":8,"NumParcelsToday_1":2,"TotalParcelWeightKG_1":0.85999999999999999}},{"type":"Feature","id":32,"geometry":{"type":"Point","coordinates":[16.404963620000046,48.198842070000069]},"properties":{"OBJECTID":32,"SOURCE_ID":2673,"TotalParcelWeightKG":0.76000000000000001,"NumParcelsToday":2,"ZONE_ID":55,"Join_Count":2,"District":3,"Address":"Dietrichgasse 41, 1030","Longitude":16.40496362,"Latitude":48.198842069999998,"Postal":1030,"City":"Vienna","NumHouseholds":1,"NumPeople":2,"NumParcelsToday_1":1,"TotalParcelWeightKG_1":0.63}},{"type":"Feature","id":33,"geometry":{"type":"Point","coordinates":[16.404198970000039,48.198402760000079]},"properties":{"OBJECTID":33,"SOURCE_ID":2675,"TotalParcelWeightKG":19,"NumParcelsToday":1,"ZONE_ID":55,"Join_Count":1,"District":3,"Address":"Drorygasse 19-23/2, 1030","Longitude":16.404198969999999,"Latitude":48.19840276,"Postal":1030,"City":"Vienna","NumHouseholds":1,"NumPeople":2,"NumParcelsToday_1":1,"TotalParcelWeightKG_1":19}},{"type":"Feature","id":34,"geometry":{"type":"Point","coordinates":[16.403852090000044,48.198125440000069]},"properties":{"OBJECTID":34,"SOURCE_ID":2677,"TotalParcelWeightKG":0.070000000000000007,"NumParcelsToday":1,"ZONE_ID":55,"Join_Count":2,"District":3,"Address":"Drorygasse 25/1, 1030","Longitude":16.403852090000001,"Latitude":48.198125439999998,"Postal":1030,"City":"Vienna","NumHouseholds":1,"NumPeople":2,"NumParcelsToday_1":1,"TotalParcelWeightKG_1":0.070000000000000007}},{"type":"Feature","id":35,"geometry":{"type":"Point","coordinates":[16.405582640000034,48.199457030000076]},"properties":{"OBJECTID":35,"SOURCE_ID":2678,"TotalParcelWeightKG":0.94999999999999996,"NumParcelsToday":2,"ZONE_ID":55,"Join_Count":1,"District":3,"Address":"Drorygasse 4, 1030","Longitude":16.405582639999999,"Latitude":48.199457029999998,"Postal":1030,"City":"Vienna","NumHouseholds":2,"NumPeople":4,"NumParcelsToday_1":2,"TotalParcelWeightKG_1":0.94999999999999996}},{"type":"Feature","id":36,"geometry":{"type":"Point","coordinates":[16.405143590000023,48.199249660000078]},"properties":{"OBJECTID":36,"SOURCE_ID":2679,"TotalParcelWeightKG":15.949999999999999,"NumParcelsToday":1,"ZONE_ID":55,"Join_Count":1,"District":3,"Address":"Drorygasse 4A, 1030","Longitude":16.405143590000002,"Latitude":48.19924966,"Postal":1030,"City":"Vienna","NumHouseholds":1,"NumPeople":3,"NumParcelsToday_1":1,"TotalParcelWeightKG_1":15.949999999999999}},{"type":"Feature","id":37,"geometry":{"type":"Point","coordinates":[16.403709670000069,48.19866673000007]},"properties":{"OBJECTID":37,"SOURCE_ID":2680,"TotalParcelWeightKG":0.16,"NumParcelsToday":1,"ZONE_ID":55,"Join_Count":1,"District":3,"Address":"Drorygasse 8/2, 1030","Longitude":16.403709670000001,"Latitude":48.198666729999999,"Postal":1030,"City":"Vienna","NumHouseholds":1,"NumPeople":1,"NumParcelsToday_1":1,"TotalParcelWeightKG_1":0.16}},{"type":"Feature","id":38,"geometry":{"type":"Point","coordinates":[16.40360368000006,48.198778940000068]},"properties":{"OBJECTID":38,"SOURCE_ID":2681,"TotalParcelWeightKG":0.91000000000000003,"NumParcelsToday":1,"ZONE_ID":55,"Join_Count":1,"District":3,"Address":"Drorygasse 8/3, 1030","Longitude":16.40360368,"Latitude":48.198778939999997,"Postal":1030,"City":"Vienna","NumHouseholds":1,"NumPeople":1,"NumParcelsToday_1":1,"TotalParcelWeightKG_1":0.91000000000000003}},{"type":"Feature","id":39,"geometry":{"type":"Point","coordinates":[16.404149010000026,48.198770430000081]},"properties":{"OBJECTID":39,"SOURCE_ID":2682,"TotalParcelWeightKG":1.1699999999999999,"NumParcelsToday":2,"ZONE_ID":55,"Join_Count":3,"District":3,"Address":"Dietrichgasse 28-30/6, 1030","Longitude":16.404149010000001,"Latitude":48.198770430000003,"Postal":1030,"City":"Vienna","NumHouseholds":1,"NumPeople":4,"NumParcelsToday_1":1,"TotalParcelWeightKG_1":3.7799999999999998}},{"type":"Feature","id":40,"geometry":{"type":"Point","coordinates":[16.407179040000074,48.199534730000039]},"properties":{"OBJECTID":40,"SOURCE_ID":2692,"TotalParcelWeightKG":28.43,"NumParcelsToday":1,"ZONE_ID":55,"Join_Count":1,"District":3,"Address":"Erdberger Lände 40/4, 1030","Longitude":16.407179039999999,"Latitude":48.199534730000003,"Postal":1030,"City":"Vienna","NumHouseholds":1,"NumPeople":2,"NumParcelsToday_1":1,"TotalParcelWeightKG_1":28.43}},{"type":"Feature","id":41,"geometry":{"type":"Point","coordinates":[16.407770140000025,48.198100760000045]},"properties":{"OBJECTID":41,"SOURCE_ID":2694,"TotalParcelWeightKG":0.65000000000000002,"NumParcelsToday":1,"ZONE_ID":55,"Join_Count":1,"District":3,"Address":"Erdberger Lände 50/6, 1030","Longitude":16.40777014,"Latitude":48.198100760000003,"Postal":1030,"City":"Vienna","NumHouseholds":1,"NumPeople":5,"NumParcelsToday_1":1,"TotalParcelWeightKG_1":0.65000000000000002}},{"type":"Feature","id":42,"geometry":{"type":"Point","coordinates":[16.408123690000025,48.198226440000042]},"properties":{"OBJECTID":42,"SOURCE_ID":2695,"TotalParcelWeightKG":0.5,"NumParcelsToday":1,"ZONE_ID":55,"Join_Count":3,"District":3,"Address":"Erdberger Lände 50/7, 1030","Longitude":16.40812369,"Latitude":48.198226439999999,"Postal":1030,"City":"Vienna","NumHouseholds":1,"NumPeople":2,"NumParcelsToday_1":1,"TotalParcelWeightKG_1":0.5}},{"type":"Feature","id":43,"geometry":{"type":"Point","coordinates":[16.407141600000045,48.195715790000065]},"properties":{"OBJECTID":43,"SOURCE_ID":2712,"TotalParcelWeightKG":0.22,"NumParcelsToday":1,"ZONE_ID":55,"Join_Count":1,"District":3,"Address":"Erdbergstraße 154, 1030","Longitude":16.407141599999999,"Latitude":48.195715790000001,"Postal":1030,"City":"Vienna","NumHouseholds":1,"NumPeople":1,"NumParcelsToday_1":1,"TotalParcelWeightKG_1":0.22}},{"type":"Feature","id":44,"geometry":{"type":"Point","coordinates":[16.408954210000047,48.19595927000006]},"properties":{"OBJECTID":44,"SOURCE_ID":2830,"TotalParcelWeightKG":0.34000000000000002,"NumParcelsToday":1,"ZONE_ID":55,"Join_Count":3,"District":3,"Address":"Fruethstraße 1-3/2, 1030","Longitude":16.408954210000001,"Latitude":48.195959270000003,"Postal":1030,"City":"Vienna","NumHouseholds":1,"NumPeople":5,"NumParcelsToday_1":1,"TotalParcelWeightKG_1":0.34000000000000002}},{"type":"Feature","id":45,"geometry":{"type":"Point","coordinates":[16.408613630000048,48.196146550000037]},"properties":{"OBJECTID":45,"SOURCE_ID":2831,"TotalParcelWeightKG":0.23999999999999999,"NumParcelsToday":1,"ZONE_ID":55,"Join_Count":1,"District":3,"Address":"Fruethstraße 1-3/5, 1030","Longitude":16.408613630000001,"Latitude":48.196146550000002,"Postal":1030,"City":"Vienna","NumHouseholds":1,"NumPeople":1,"NumParcelsToday_1":1,"TotalParcelWeightKG_1":0.23999999999999999}},{"type":"Feature","id":46,"geometry":{"type":"Point","coordinates":[16.408767840000053,48.196194560000038]},"properties":{"OBJECTID":46,"SOURCE_ID":2832,"TotalParcelWeightKG":1.01,"NumParcelsToday":2,"ZONE_ID":55,"Join_Count":1,"District":3,"Address":"Fruethstraße 1-3/6, 1030","Longitude":16.408767839999999,"Latitude":48.196194560000002,"Postal":1030,"City":"Vienna","NumHouseholds":2,"NumPeople":3,"NumParcelsToday_1":2,"TotalParcelWeightKG_1":1.01}},{"type":"Feature","id":47,"geometry":{"type":"Point","coordinates":[16.407221030000073,48.196151820000068]},"properties":{"OBJECTID":47,"SOURCE_ID":2833,"TotalParcelWeightKG":0.31,"NumParcelsToday":1,"ZONE_ID":55,"Join_Count":1,"District":3,"Address":"Fruethstraße 11, 1030","Longitude":16.407221029999999,"Latitude":48.196151819999997,"Postal":1030,"City":"Vienna","NumHouseholds":1,"NumPeople":3,"NumParcelsToday_1":1,"TotalParcelWeightKG_1":0.31}},{"type":"Feature","id":48,"geometry":{"type":"Point","coordinates":[16.408526330000029,48.196625590000053]},"properties":{"OBJECTID":48,"SOURCE_ID":2834,"TotalParcelWeightKG":0.88,"NumParcelsToday":1,"ZONE_ID":55,"Join_Count":1,"District":3,"Address":"Fruethstraße 2 Obj. 6, 1030","Longitude":16.408526330000001,"Latitude":48.196625589999996,"Postal":1030,"City":"Vienna","NumHouseholds":1,"NumPeople":3,"NumParcelsToday_1":1,"TotalParcelWeightKG_1":0.88}},{"type":"Feature","id":49,"geometry":{"type":"Point","coordinates":[16.408479800000066,48.196440020000068]},"properties":{"OBJECTID":49,"SOURCE_ID":2835,"TotalParcelWeightKG":1.5900000000000001,"NumParcelsToday":1,"ZONE_ID":55,"Join_Count":1,"District":3,"Address":"Fruethstraße 2 Obj. 7, 1030","Longitude":16.408479799999999,"Latitude":48.196440019999997,"Postal":1030,"City":"Vienna","NumHouseholds":1,"NumPeople":3,"NumParcelsToday_1":1,"TotalParcelWeightKG_1":1.5900000000000001}},{"type":"Feature","id":50,"geometry":{"type":"Point","coordinates":[16.403432060000057,48.198286390000078]},"properties":{"OBJECTID":50,"SOURCE_ID":2931,"TotalParcelWeightKG":0.39000000000000001,"NumParcelsToday":1,"ZONE_ID":55,"Join_Count":1,"District":3,"Address":"Göllnergasse 26/6, 1030","Longitude":16.40343206,"Latitude":48.19828639,"Postal":1030,"City":"Vienna","NumHouseholds":1,"NumPeople":4,"NumParcelsToday_1":1,"TotalParcelWeightKG_1":0.39000000000000001}},{"type":"Feature","id":51,"geometry":{"type":"Point","coordinates":[16.403879110000048,48.19893004000005]},"properties":{"OBJECTID":51,"SOURCE_ID":2933,"TotalParcelWeightKG":0.17000000000000001,"NumParcelsToday":1,"ZONE_ID":55,"Join_Count":1,"District":3,"Address":"Göllnergasse 37/4, 1030","Longitude":16.403879109999998,"Latitude":48.19893004,"Postal":1030,"City":"Vienna","NumHouseholds":1,"NumPeople":3,"NumParcelsToday_1":1,"TotalParcelWeightKG_1":0.17000000000000001}},{"type":"Feature","id":52,"geometry":{"type":"Point","coordinates":[16.404149010000026,48.198770430000081]},"properties":{"OBJECTID":52,"SOURCE_ID":2934,"TotalParcelWeightKG":0.28999999999999998,"NumParcelsToday":1,"ZONE_ID":55,"Join_Count":3,"District":3,"Address":"Dietrichgasse 28-30/6, 1030","Longitude":16.404149010000001,"Latitude":48.198770430000003,"Postal":1030,"City":"Vienna","NumHouseholds":1,"NumPeople":4,"NumParcelsToday_1":1,"TotalParcelWeightKG_1":3.7799999999999998}},{"type":"Feature","id":53,"geometry":{"type":"Point","coordinates":[16.403288840000073,48.198520660000042]},"properties":{"OBJECTID":53,"SOURCE_ID":2958,"TotalParcelWeightKG":0.11,"NumParcelsToday":1,"ZONE_ID":55,"Join_Count":1,"District":3,"Address":"Hagenmüllergasse 21-23/4, 1030","Longitude":16.403288839999998,"Latitude":48.19852066,"Postal":1030,"City":"Vienna","NumHouseholds":1,"NumPeople":2,"NumParcelsToday_1":1,"TotalParcelWeightKG_1":0.11}},{"type":"Feature","id":54,"geometry":{"type":"Point","coordinates":[16.403504060000046,48.198409380000044]},"properties":{"OBJECTID":54,"SOURCE_ID":2959,"TotalParcelWeightKG":0.78000000000000003,"NumParcelsToday":2,"ZONE_ID":55,"Join_Count":2,"District":3,"Address":"Drorygasse 10-12/5, 1030","Longitude":16.403504059999999,"Latitude":48.198409380000001,"Postal":1030,"City":"Vienna","NumHouseholds":2,"NumPeople":8,"NumParcelsToday_1":2,"TotalParcelWeightKG_1":0.85999999999999999}},{"type":"Feature","id":55,"geometry":{"type":"Point","coordinates":[16.403852090000044,48.198125440000069]},"properties":{"OBJECTID":55,"SOURCE_ID":2962,"TotalParcelWeightKG":1.8600000000000001,"NumParcelsToday":2,"ZONE_ID":55,"Join_Count":2,"District":3,"Address":"Drorygasse 25/1, 1030","Longitude":16.403852090000001,"Latitude":48.198125439999998,"Postal":1030,"City":"Vienna","NumHouseholds":1,"NumPeople":2,"NumParcelsToday_1":1,"TotalParcelWeightKG_1":0.070000000000000007}},{"type":"Feature","id":56,"geometry":{"type":"Point","coordinates":[16.408123690000025,48.198226440000042]},"properties":{"OBJECTID":56,"SOURCE_ID":3015,"TotalParcelWeightKG":0.38,"NumParcelsToday":1,"ZONE_ID":55,"Join_Count":3,"District":3,"Address":"Erdberger Lände 50/7, 1030","Longitude":16.40812369,"Latitude":48.198226439999999,"Postal":1030,"City":"Vienna","NumHouseholds":1,"NumPeople":2,"NumParcelsToday_1":1,"TotalParcelWeightKG_1":0.5}},{"type":"Feature","id":57,"geometry":{"type":"Point","coordinates":[16.409278210000025,48.196680950000029]},"properties":{"OBJECTID":57,"SOURCE_ID":3016,"TotalParcelWeightKG":0.29999999999999999,"NumParcelsToday":1,"ZONE_ID":55,"Join_Count":2,"District":3,"Address":"Hanuschhof/14, 1030","Longitude":16.40927821,"Latitude":48.196680950000001,"Postal":1030,"City":"Vienna","NumHouseholds":1,"NumPeople":1,"NumParcelsToday_1":1,"TotalParcelWeightKG_1":0.29999999999999999}},{"type":"Feature","id":58,"geometry":{"type":"Point","coordinates":[16.408370190000028,48.197222470000042]},"properties":{"OBJECTID":58,"SOURCE_ID":3017,"TotalParcelWeightKG":0.13,"NumParcelsToday":1,"ZONE_ID":55,"Join_Count":1,"District":3,"Address":"Hanuschhof/20, 1030","Longitude":16.408370189999999,"Latitude":48.19722247,"Postal":1030,"City":"Vienna","NumHouseholds":1,"NumPeople":4,"NumParcelsToday_1":1,"TotalParcelWeightKG_1":0.13}},{"type":"Feature","id":59,"geometry":{"type":"Point","coordinates":[16.407675070000039,48.197548730000051]},"properties":{"OBJECTID":59,"SOURCE_ID":3018,"TotalParcelWeightKG":0.62,"NumParcelsToday":1,"ZONE_ID":55,"Join_Count":1,"District":3,"Address":"Hanuschhof/25, 1030","Longitude":16.40767507,"Latitude":48.197548730000001,"Postal":1030,"City":"Vienna","NumHouseholds":1,"NumPeople":2,"NumParcelsToday_1":1,"TotalParcelWeightKG_1":0.62}},{"type":"Feature","id":60,"geometry":{"type":"Point","coordinates":[16.407041030000073,48.197594350000031]},"properties":{"OBJECTID":60,"SOURCE_ID":3019,"TotalParcelWeightKG":0.78000000000000003,"NumParcelsToday":1,"ZONE_ID":55,"Join_Count":2,"District":3,"Address":"Hanuschhof/28, 1030","Longitude":16.407041029999998,"Latitude":48.197594350000003,"Postal":1030,"City":"Vienna","NumHouseholds":1,"NumPeople":2,"NumParcelsToday_1":1,"TotalParcelWeightKG_1":0.78000000000000003}},{"type":"Feature","id":61,"geometry":{"type":"Point","coordinates":[16.407830820000072,48.198014660000069]},"properties":{"OBJECTID":61,"SOURCE_ID":3020,"TotalParcelWeightKG":0.11,"NumParcelsToday":1,"ZONE_ID":55,"Join_Count":1,"District":3,"Address":"Hanuschhof/5, 1030","Longitude":16.407830820000001,"Latitude":48.198014659999998,"Postal":1030,"City":"Vienna","NumHouseholds":1,"NumPeople":1,"NumParcelsToday_1":1,"TotalParcelWeightKG_1":0.11}},{"type":"Feature","id":62,"geometry":{"type":"Point","coordinates":[16.402778810000029,48.197841070000038]},"properties":{"OBJECTID":62,"SOURCE_ID":3140,"TotalParcelWeightKG":0.46000000000000002,"NumParcelsToday":1,"ZONE_ID":55,"Join_Count":1,"District":3,"Address":"Kardinal-Nagl-Platz 14/4, 1030","Longitude":16.402778810000001,"Latitude":48.197841070000003,"Postal":1030,"City":"Vienna","NumHouseholds":1,"NumPeople":2,"NumParcelsToday_1":1,"TotalParcelWeightKG_1":0.46000000000000002}},{"type":"Feature","id":63,"geometry":{"type":"Point","coordinates":[16.407513020000067,48.198354530000074]},"properties":{"OBJECTID":63,"SOURCE_ID":3153,"TotalParcelWeightKG":0.16,"NumParcelsToday":1,"ZONE_ID":55,"Join_Count":2,"District":3,"Address":"Dietrichgasse 49/2, 1030","Longitude":16.40751302,"Latitude":48.198354530000003,"Postal":1030,"City":"Vienna","NumHouseholds":1,"NumPeople":1,"NumParcelsToday_1":1,"TotalParcelWeightKG_1":0.34000000000000002}},{"type":"Feature","id":64,"geometry":{"type":"Point","coordinates":[16.406521940000061,48.198485270000049]},"properties":{"OBJECTID":64,"SOURCE_ID":3154,"TotalParcelWeightKG":1.3200000000000001,"NumParcelsToday":1,"ZONE_ID":55,"Join_Count":1,"District":3,"Address":"Karl-Waldbrunner-Hof/7, 1030","Longitude":16.406521940000001,"Latitude":48.198485269999999,"Postal":1030,"City":"Vienna","NumHouseholds":1,"NumPeople":2,"NumParcelsToday_1":1,"TotalParcelWeightKG_1":1.3200000000000001}},{"type":"Feature","id":65,"geometry":{"type":"Point","coordinates":[16.405495420000022,48.198478790000081]},"properties":{"OBJECTID":65,"SOURCE_ID":3155,"TotalParcelWeightKG":0.44,"NumParcelsToday":1,"ZONE_ID":55,"Join_Count":1,"District":3,"Address":"Karl-Waldbrunner-Hof/8, 1030","Longitude":16.405495420000001,"Latitude":48.198478790000003,"Postal":1030,"City":"Vienna","NumHouseholds":1,"NumPeople":5,"NumParcelsToday_1":1,"TotalParcelWeightKG_1":0.44}},{"type":"Feature","id":66,"geometry":{"type":"Point","coordinates":[16.405732400000034,48.19834609000003]},"properties":{"OBJECTID":66,"SOURCE_ID":3156,"TotalParcelWeightKG":0.19,"NumParcelsToday":1,"ZONE_ID":55,"Join_Count":1,"District":3,"Address":"Karl-Waldbrunner-Hof/9, 1030","Longitude":16.405732400000002,"Latitude":48.198346090000001,"Postal":1030,"City":"Vienna","NumHouseholds":1,"NumPeople":3,"NumParcelsToday_1":1,"TotalParcelWeightKG_1":0.19}},{"type":"Feature","id":67,"geometry":{"type":"Point","coordinates":[16.409278210000025,48.196680950000029]},"properties":{"OBJECTID":67,"SOURCE_ID":3405,"TotalParcelWeightKG":3.2000000000000002,"NumParcelsToday":2,"ZONE_ID":55,"Join_Count":2,"District":3,"Address":"Hanuschhof/14, 1030","Longitude":16.40927821,"Latitude":48.196680950000001,"Postal":1030,"City":"Vienna","NumHouseholds":1,"NumPeople":1,"NumParcelsToday_1":1,"TotalParcelWeightKG_1":0.29999999999999999}},{"type":"Feature","id":68,"geometry":{"type":"Point","coordinates":[16.408909150000056,48.196717430000035]},"properties":{"OBJECTID":68,"SOURCE_ID":3406,"TotalParcelWeightKG":1.96,"NumParcelsToday":1,"ZONE_ID":55,"Join_Count":3,"District":3,"Address":"Dietrichgasse 59-63/16, 1030","Longitude":16.408909149999999,"Latitude":48.19671743,"Postal":1030,"City":"Vienna","NumHouseholds":1,"NumPeople":3,"NumParcelsToday_1":1,"TotalParcelWeightKG_1":0.93000000000000005}},{"type":"Feature","id":69,"geometry":{"type":"Point","coordinates":[16.40866826000007,48.196829910000076]},"properties":{"OBJECTID":69,"SOURCE_ID":3407,"TotalParcelWeightKG":0.93999999999999995,"NumParcelsToday":1,"ZONE_ID":55,"Join_Count":2,"District":3,"Address":"Lechnerstraße 1-5/17, 1030","Longitude":16.408668259999999,"Latitude":48.196829909999998,"Postal":1030,"City":"Vienna","NumHouseholds":1,"NumPeople":2,"NumParcelsToday_1":1,"TotalParcelWeightKG_1":0.93999999999999995}},{"type":"Feature","id":70,"geometry":{"type":"Point","coordinates":[16.408426680000048,48.197026290000053]},"properties":{"OBJECTID":70,"SOURCE_ID":3408,"TotalParcelWeightKG":2.8199999999999998,"NumParcelsToday":1,"ZONE_ID":55,"Join_Count":3,"District":3,"Address":"Dietrichgasse 59-63/19, 1030","Longitude":16.408426680000002,"Latitude":48.197026289999997,"Postal":1030,"City":"Vienna","NumHouseholds":1,"NumPeople":1,"NumParcelsToday_1":1,"TotalParcelWeightKG_1":0.029999999999999999}},{"type":"Feature","id":71,"geometry":{"type":"Point","coordinates":[16.407357810000065,48.197982210000077]},"properties":{"OBJECTID":71,"SOURCE_ID":3409,"TotalParcelWeightKG":0.10000000000000001,"NumParcelsToday":1,"ZONE_ID":55,"Join_Count":2,"District":3,"Address":"Lechnerstraße 1-5/2, 1030","Longitude":16.407357810000001,"Latitude":48.197982209999999,"Postal":1030,"City":"Vienna","NumHouseholds":1,"NumPeople":2,"NumParcelsToday_1":1,"TotalParcelWeightKG_1":0.10000000000000001}},{"type":"Feature","id":72,"geometry":{"type":"Point","coordinates":[16.407991290000041,48.197146890000056]},"properties":{"OBJECTID":72,"SOURCE_ID":3410,"TotalParcelWeightKG":0.65000000000000002,"NumParcelsToday":1,"ZONE_ID":55,"Join_Count":2,"District":3,"Address":"Dietrichgasse 59-63/22, 1030","Longitude":16.407991289999998,"Latitude":48.197146889999999,"Postal":1030,"City":"Vienna","NumHouseholds":1,"NumPeople":5,"NumParcelsToday_1":1,"TotalParcelWeightKG_1":4.9800000000000004}},{"type":"Feature","id":73,"geometry":{"type":"Point","coordinates":[16.407737480000037,48.19735380000003]},"properties":{"OBJECTID":73,"SOURCE_ID":3411,"TotalParcelWeightKG":1.75,"NumParcelsToday":1,"ZONE_ID":55,"Join_Count":2,"District":3,"Address":"Lechnerstraße 1-5/24, 1030","Longitude":16.407737480000002,"Latitude":48.197353800000002,"Postal":1030,"City":"Vienna","NumHouseholds":1,"NumPeople":3,"NumParcelsToday_1":1,"TotalParcelWeightKG_1":1.75}},{"type":"Feature","id":74,"geometry":{"type":"Point","coordinates":[16.407041030000073,48.197594350000031]},"properties":{"OBJECTID":74,"SOURCE_ID":3412,"TotalParcelWeightKG":0.29999999999999999,"NumParcelsToday":1,"ZONE_ID":55,"Join_Count":2,"District":3,"Address":"Hanuschhof/28, 1030","Longitude":16.407041029999998,"Latitude":48.197594350000003,"Postal":1030,"City":"Vienna","NumHouseholds":1,"NumPeople":2,"NumParcelsToday_1":1,"TotalParcelWeightKG_1":0.78000000000000003}},{"type":"Feature","id":75,"geometry":{"type":"Point","coordinates":[16.406419140000025,48.197582060000059]},"properties":{"OBJECTID":75,"SOURCE_ID":3413,"TotalParcelWeightKG":1.1699999999999999,"NumParcelsToday":2,"ZONE_ID":55,"Join_Count":1,"District":3,"Address":"Lechnerstraße 11, 1030","Longitude":16.406419140000001,"Latitude":48.197582060000002,"Postal":1030,"City":"Vienna","NumHouseholds":2,"NumPeople":5,"NumParcelsToday_1":2,"TotalParcelWeightKG_1":1.1699999999999999}},{"type":"Feature","id":76,"geometry":{"type":"Point","coordinates":[16.406008890000066,48.197726030000069]},"properties":{"OBJECTID":76,"SOURCE_ID":3414,"TotalParcelWeightKG":0.70000000000000007,"NumParcelsToday":3,"ZONE_ID":55,"Join_Count":1,"District":3,"Address":"Lechnerstraße 12, 1030","Longitude":16.406008889999999,"Latitude":48.197726029999998,"Postal":1030,"City":"Vienna","NumHouseholds":2,"NumPeople":6,"NumParcelsToday_1":3,"TotalParcelWeightKG_1":0.70000000000000007}},{"type":"Feature","id":77,"geometry":{"type":"Point","coordinates":[16.406655690000036,48.198019970000075]},"properties":{"OBJECTID":77,"SOURCE_ID":3419,"TotalParcelWeightKG":0.10000000000000001,"NumParcelsToday":1,"ZONE_ID":55,"Join_Count":1,"District":3,"Address":"Lechnerstraße 8, 1030","Longitude":16.406655690000001,"Latitude":48.198019969999997,"Postal":1030,"City":"Vienna","NumHouseholds":1,"NumPeople":2,"NumParcelsToday_1":1,"TotalParcelWeightKG_1":0.10000000000000001}},{"type":"Feature","id":78,"geometry":{"type":"Point","coordinates":[16.408954210000047,48.19595927000006]},"properties":{"OBJECTID":78,"SOURCE_ID":3466,"TotalParcelWeightKG":0.27000000000000002,"NumParcelsToday":1,"ZONE_ID":55,"Join_Count":3,"District":3,"Address":"Fruethstraße 1-3/2, 1030","Longitude":16.408954210000001,"Latitude":48.195959270000003,"Postal":1030,"City":"Vienna","NumHouseholds":1,"NumPeople":5,"NumParcelsToday_1":1,"TotalParcelWeightKG_1":0.34000000000000002}},{"type":"Feature","id":79,"geometry":{"type":"Point","coordinates":[16.407212840000057,48.197909010000046]},"properties":{"OBJECTID":79,"SOURCE_ID":3467,"TotalParcelWeightKG":0.64000000000000001,"NumParcelsToday":2,"ZONE_ID":55,"Join_Count":1,"District":3,"Address":"Ludwig-Koeßler-Platz 4/1, 1030","Longitude":16.40721284,"Latitude":48.197909009999996,"Postal":1030,"City":"Vienna","NumHouseholds":2,"NumPeople":4,"NumParcelsToday_1":2,"TotalParcelWeightKG_1":0.64000000000000001}},{"type":"Feature","id":80,"geometry":{"type":"Point","coordinates":[16.408909150000056,48.196717430000035]},"properties":{"OBJECTID":80,"SOURCE_ID":3469,"TotalParcelWeightKG":0.13,"NumParcelsToday":1,"ZONE_ID":55,"Join_Count":3,"District":3,"Address":"Dietrichgasse 59-63/16, 1030","Longitude":16.408909149999999,"Latitude":48.19671743,"Postal":1030,"City":"Vienna","NumHouseholds":1,"NumPeople":3,"NumParcelsToday_1":1,"TotalParcelWeightKG_1":0.93000000000000005}},{"type":"Feature","id":81,"geometry":{"type":"Point","coordinates":[16.40866826000007,48.196829910000076]},"properties":{"OBJECTID":81,"SOURCE_ID":3470,"TotalParcelWeightKG":0.44,"NumParcelsToday":1,"ZONE_ID":55,"Join_Count":2,"District":3,"Address":"Lechnerstraße 1-5/17, 1030","Longitude":16.408668259999999,"Latitude":48.196829909999998,"Postal":1030,"City":"Vienna","NumHouseholds":1,"NumPeople":2,"NumParcelsToday_1":1,"TotalParcelWeightKG_1":0.93999999999999995}},{"type":"Feature","id":82,"geometry":{"type":"Point","coordinates":[16.408426680000048,48.197026290000053]},"properties":{"OBJECTID":82,"SOURCE_ID":3471,"TotalParcelWeightKG":0.63,"NumParcelsToday":1,"ZONE_ID":55,"Join_Count":3,"District":3,"Address":"Dietrichgasse 59-63/19, 1030","Longitude":16.408426680000002,"Latitude":48.197026289999997,"Postal":1030,"City":"Vienna","NumHouseholds":1,"NumPeople":1,"NumParcelsToday_1":1,"TotalParcelWeightKG_1":0.029999999999999999}},{"type":"Feature","id":83,"geometry":{"type":"Point","coordinates":[16.407357810000065,48.197982210000077]},"properties":{"OBJECTID":83,"SOURCE_ID":3472,"TotalParcelWeightKG":0.63,"NumParcelsToday":1,"ZONE_ID":55,"Join_Count":2,"District":3,"Address":"Lechnerstraße 1-5/2, 1030","Longitude":16.407357810000001,"Latitude":48.197982209999999,"Postal":1030,"City":"Vienna","NumHouseholds":1,"NumPeople":2,"NumParcelsToday_1":1,"TotalParcelWeightKG_1":0.10000000000000001}},{"type":"Feature","id":84,"geometry":{"type":"Point","coordinates":[16.407737480000037,48.19735380000003]},"properties":{"OBJECTID":84,"SOURCE_ID":3473,"TotalParcelWeightKG":0.029999999999999999,"NumParcelsToday":1,"ZONE_ID":55,"Join_Count":2,"District":3,"Address":"Lechnerstraße 1-5/24, 1030","Longitude":16.407737480000002,"Latitude":48.197353800000002,"Postal":1030,"City":"Vienna","NumHouseholds":1,"NumPeople":3,"NumParcelsToday_1":1,"TotalParcelWeightKG_1":1.75}},{"type":"Feature","id":85,"geometry":{"type":"Point","coordinates":[16.408123690000025,48.198226440000042]},"properties":{"OBJECTID":85,"SOURCE_ID":3474,"TotalParcelWeightKG":0.63,"NumParcelsToday":2,"ZONE_ID":55,"Join_Count":3,"District":3,"Address":"Erdberger Lände 50/7, 1030","Longitude":16.40812369,"Latitude":48.198226439999999,"Postal":1030,"City":"Vienna","NumHouseholds":1,"NumPeople":2,"NumParcelsToday_1":1,"TotalParcelWeightKG_1":0.5}},{"type":"Feature","id":86,"geometry":{"type":"Point","coordinates":[16.407349870000075,48.194775960000072]},"properties":{"OBJECTID":86,"SOURCE_ID":3509,"TotalParcelWeightKG":0.84999999999999998,"NumParcelsToday":1,"ZONE_ID":55,"Join_Count":1,"District":3,"Address":"Markhofgasse 1-9/1, 1030","Longitude":16.407349870000001,"Latitude":48.194775960000001,"Postal":1030,"City":"Vienna","NumHouseholds":1,"NumPeople":1,"NumParcelsToday_1":1,"TotalParcelWeightKG_1":0.84999999999999998}},{"type":"Feature","id":87,"geometry":{"type":"Point","coordinates":[16.410088550000069,48.196146240000076]},"properties":{"OBJECTID":87,"SOURCE_ID":3865,"TotalParcelWeightKG":0.93000000000000005,"NumParcelsToday":2,"ZONE_ID":55,"Join_Count":1,"District":3,"Address":"Schlachthausgasse 1, 1030","Longitude":16.410088550000001,"Latitude":48.196146239999997,"Postal":1030,"City":"Vienna","NumHouseholds":2,"NumPeople":2,"NumParcelsToday_1":2,"TotalParcelWeightKG_1":0.93000000000000005}},{"type":"Feature","id":88,"geometry":{"type":"Point","coordinates":[16.408263100000056,48.19519960000008]},"properties":{"OBJECTID":88,"SOURCE_ID":3866,"TotalParcelWeightKG":0.27000000000000002,"NumParcelsToday":1,"ZONE_ID":55,"Join_Count":1,"District":3,"Address":"Schlachthausgasse 17, 1030","Longitude":16.408263099999999,"Latitude":48.195199600000002,"Postal":1030,"City":"Vienna","NumHouseholds":1,"NumPeople":4,"NumParcelsToday_1":1,"TotalParcelWeightKG_1":0.27000000000000002}},{"type":"Feature","id":89,"geometry":{"type":"Point","coordinates":[16.407432550000067,48.195136810000065]},"properties":{"OBJECTID":89,"SOURCE_ID":3867,"TotalParcelWeightKG":0.47999999999999998,"NumParcelsToday":1,"ZONE_ID":55,"Join_Count":2,"District":3,"Address":"Schlachthausgasse 18, 1030","Longitude":16.407432549999999,"Latitude":48.195136810000001,"Postal":1030,"City":"Vienna","NumHouseholds":1,"NumPeople":1,"NumParcelsToday_1":1,"TotalParcelWeightKG_1":0.47999999999999998}},{"type":"Feature","id":90,"geometry":{"type":"Point","coordinates":[16.408075000000053,48.195034980000059]},"properties":{"OBJECTID":90,"SOURCE_ID":3868,"TotalParcelWeightKG":0.39000000000000001,"NumParcelsToday":1,"ZONE_ID":55,"Join_Count":1,"District":3,"Address":"Schlachthausgasse 19, 1030","Longitude":16.408075,"Latitude":48.195034980000003,"Postal":1030,"City":"Vienna","NumHouseholds":1,"NumPeople":1,"NumParcelsToday_1":1,"TotalParcelWeightKG_1":0.39000000000000001}},{"type":"Feature","id":91,"geometry":{"type":"Point","coordinates":[16.408954210000047,48.19595927000006]},"properties":{"OBJECTID":91,"SOURCE_ID":3869,"TotalParcelWeightKG":0.81999999999999995,"NumParcelsToday":1,"ZONE_ID":55,"Join_Count":3,"District":3,"Address":"Fruethstraße 1-3/2, 1030","Longitude":16.408954210000001,"Latitude":48.195959270000003,"Postal":1030,"City":"Vienna","NumHouseholds":1,"NumPeople":5,"NumParcelsToday_1":1,"TotalParcelWeightKG_1":0.34000000000000002}},{"type":"Feature","id":92,"geometry":{"type":"Point","coordinates":[16.408782560000077,48.195950480000079]},"properties":{"OBJECTID":92,"SOURCE_ID":3870,"TotalParcelWeightKG":0.28999999999999998,"NumParcelsToday":1,"ZONE_ID":55,"Join_Count":1,"District":3,"Address":"Schlachthausgasse 2-6/3, 1030","Longitude":16.408782559999999,"Latitude":48.19595048,"Postal":1030,"City":"Vienna","NumHouseholds":1,"NumPeople":1,"NumParcelsToday_1":1,"TotalParcelWeightKG_1":0.28999999999999998}},{"type":"Feature","id":93,"geometry":{"type":"Point","coordinates":[16.407567690000064,48.194909290000055]},"properties":{"OBJECTID":93,"SOURCE_ID":3871,"TotalParcelWeightKG":2.6000000000000001,"NumParcelsToday":1,"ZONE_ID":55,"Join_Count":1,"District":3,"Address":"Schlachthausgasse 21, 1030","Longitude":16.40756769,"Latitude":48.194909289999998,"Postal":1030,"City":"Vienna","NumHouseholds":1,"NumPeople":5,"NumParcelsToday_1":1,"TotalParcelWeightKG_1":2.6000000000000001}},{"type":"Feature","id":94,"geometry":{"type":"Point","coordinates":[16.409656650000045,48.195784270000047]},"properties":{"OBJECTID":94,"SOURCE_ID":3876,"TotalParcelWeightKG":4.5899999999999999,"NumParcelsToday":1,"ZONE_ID":55,"Join_Count":2,"District":3,"Address":"Schlachthausgasse 3/1, 1030","Longitude":16.409656649999999,"Latitude":48.195784269999997,"Postal":1030,"City":"Vienna","NumHouseholds":1,"NumPeople":2,"NumParcelsToday_1":1,"TotalParcelWeightKG_1":4.5899999999999999}},{"type":"Feature","id":95,"geometry":{"type":"Point","coordinates":[16.409862920000023,48.195640420000075]},"properties":{"OBJECTID":95,"SOURCE_ID":3877,"TotalParcelWeightKG":0.45000000000000001,"NumParcelsToday":1,"ZONE_ID":55,"Join_Count":1,"District":3,"Address":"Schlachthausgasse 3/2, 1030","Longitude":16.409862919999998,"Latitude":48.195640419999997,"Postal":1030,"City":"Vienna","NumHouseholds":1,"NumPeople":1,"NumParcelsToday_1":1,"TotalParcelWeightKG_1":0.45000000000000001}},{"type":"Feature","id":96,"geometry":{"type":"Point","coordinates":[16.408646830000066,48.195753790000026]},"properties":{"OBJECTID":96,"SOURCE_ID":3896,"TotalParcelWeightKG":1.6200000000000001,"NumParcelsToday":1,"ZONE_ID":55,"Join_Count":1,"District":3,"Address":"Schlachthausgasse 8, 1030","Longitude":16.408646829999999,"Latitude":48.195753789999998,"Postal":1030,"City":"Vienna","NumHouseholds":1,"NumPeople":1,"NumParcelsToday_1":1,"TotalParcelWeightKG_1":1.6200000000000001}},{"type":"Feature","id":97,"geometry":{"type":"Point","coordinates":[16.409656650000045,48.195784270000047]},"properties":{"OBJECTID":97,"SOURCE_ID":3923,"TotalParcelWeightKG":0.040000000000000001,"NumParcelsToday":1,"ZONE_ID":55,"Join_Count":2,"District":3,"Address":"Schlachthausgasse 3/1, 1030","Longitude":16.409656649999999,"Latitude":48.195784269999997,"Postal":1030,"City":"Vienna","NumHouseholds":1,"NumPeople":2,"NumParcelsToday_1":1,"TotalParcelWeightKG_1":4.5899999999999999}},{"type":"Feature","id":98,"geometry":{"type":"Point","coordinates":[16.405600200000038,48.20003298000006]},"properties":{"OBJECTID":98,"SOURCE_ID":4133,"TotalParcelWeightKG":0.82999999999999996,"NumParcelsToday":1,"ZONE_ID":55,"Join_Count":1,"District":3,"Address":"Wehleweg 4, 1030","Longitude":16.405600199999999,"Latitude":48.200032980000003,"Postal":1030,"City":"Vienna","NumHouseholds":1,"NumPeople":2,"NumParcelsToday_1":1,"TotalParcelWeightKG_1":0.82999999999999996}},{"type":"Feature","id":99,"geometry":{"type":"Point","coordinates":[16.405406630000073,48.200242960000026]},"properties":{"OBJECTID":99,"SOURCE_ID":4134,"TotalParcelWeightKG":7.0800000000000001,"NumParcelsToday":2,"ZONE_ID":55,"Join_Count":1,"District":3,"Address":"Wehleweg 6, 1030","Longitude":16.405406630000002,"Latitude":48.200242959999997,"Postal":1030,"City":"Vienna","NumHouseholds":2,"NumPeople":10,"NumParcelsToday_1":2,"TotalParcelWeightKG_1":7.0800000000000001}},{"type":"Feature","id":100,"geometry":{"type":"Point","coordinates":[16.404214670000044,48.199879820000035]},"properties":{"OBJECTID":100,"SOURCE_ID":4135,"TotalParcelWeightKG":0.38,"NumParcelsToday":1,"ZONE_ID":55,"Join_Count":1,"District":3,"Address":"Wehleweg 9, 1030","Longitude":16.404214670000002,"Latitude":48.19987982,"Postal":1030,"City":"Vienna","NumHouseholds":1,"NumPeople":1,"NumParcelsToday_1":1,"TotalParcelWeightKG_1":0.38}},{"type":"Feature","id":101,"geometry":{"type":"Point","coordinates":[16.407432550000067,48.195136810000065]},"properties":{"OBJECTID":101,"SOURCE_ID":4176,"TotalParcelWeightKG":0.92000000000000004,"NumParcelsToday":1,"ZONE_ID":55,"Join_Count":2,"District":3,"Address":"Schlachthausgasse 18, 1030","Longitude":16.407432549999999,"Latitude":48.195136810000001,"Postal":1030,"City":"Vienna","NumHouseholds":1,"NumPeople":1,"NumParcelsToday_1":1,"TotalParcelWeightKG_1":0.47999999999999998}},{"type":"Feature","id":102,"geometry":{"type":"Point","coordinates":[16.408023510000078,48.195755620000057]},"properties":{"OBJECTID":102,"SOURCE_ID":4177,"TotalParcelWeightKG":0.14000000000000001,"NumParcelsToday":1,"ZONE_ID":55,"Join_Count":1,"District":3,"Address":"Wällischgasse 5, 1030","Longitude":16.40802351,"Latitude":48.19575562,"Postal":1030,"City":"Vienna","NumHouseholds":1,"NumPeople":3,"NumParcelsToday_1":1,"TotalParcelWeightKG_1":0.14000000000000001}},{"type":"Feature","id":103,"geometry":{"type":"Point","coordinates":[16.407464850000054,48.195828280000057]},"properties":{"OBJECTID":103,"SOURCE_ID":4178,"TotalParcelWeightKG":1.3799999999999999,"NumParcelsToday":2,"ZONE_ID":55,"Join_Count":1,"District":3,"Address":"Wällischgasse 6, 1030","Longitude":16.40746485,"Latitude":48.195828280000001,"Postal":1030,"City":"Vienna","NumHouseholds":2,"NumPeople":5,"NumParcelsToday_1":2,"TotalParcelWeightKG_1":1.3799999999999999}}]
}