{
  "type" : "FeatureCollection",
  "features" : [{"type":"Feature","id":1,"geometry":{"type":"Point","coordinates":[16.367929650000065,48.215066540000066]},"properties":{"OBJECTID":1,"SOURCE_ID":47,"TotalParcelWeightKG":0.5,"NumParcelsToday":1,"ZONE_ID":40,"Join_Count":1,"District":1,"Address":"Börseplatz 3, 1010","Longitude":16.367929650000001,"Latitude":48.215066540000002,"Postal":1010,"City":"Vienna","NumHouseholds":1,"NumPeople":5,"NumParcelsToday_1":1,"TotalParcelWeightKG_1":0.5}},{"type":"Feature","id":2,"geometry":{"type":"Point","coordinates":[16.370832990000054,48.216300900000078]},"properties":{"OBJECTID":2,"SOURCE_ID":87,"TotalParcelWeightKG":0.88,"NumParcelsToday":1,"ZONE_ID":40,"Join_Count":1,"District":1,"Address":"Franz-Josefs-Kai 55, 1010","Longitude":16.37083299,"Latitude":48.2163009,"Postal":1010,"City":"Vienna","NumHouseholds":1,"NumPeople":2,"NumParcelsToday_1":1,"TotalParcelWeightKG_1":0.88}},{"type":"Feature","id":3,"geometry":{"type":"Point","coordinates":[16.369455670000036,48.216031160000057]},"properties":{"OBJECTID":3,"SOURCE_ID":109,"TotalParcelWeightKG":0.33000000000000002,"NumParcelsToday":1,"ZONE_ID":40,"Join_Count":1,"District":1,"Address":"Gonzagagasse 19, 1010","Longitude":16.369455670000001,"Latitude":48.21603116,"Postal":1010,"City":"Vienna","NumHouseholds":1,"NumPeople":1,"NumParcelsToday_1":1,"TotalParcelWeightKG_1":0.33000000000000002}},{"type":"Feature","id":4,"geometry":{"type":"Point","coordinates":[16.368546130000027,48.217488220000064]},"properties":{"OBJECTID":4,"SOURCE_ID":199,"TotalParcelWeightKG":1.2,"NumParcelsToday":2,"ZONE_ID":40,"Join_Count":1,"District":1,"Address":"Maria-Theresien-Straße 30, 1010","Longitude":16.368546129999999,"Latitude":48.21748822,"Postal":1010,"City":"Vienna","NumHouseholds":1,"NumPeople":5,"NumParcelsToday_1":2,"TotalParcelWeightKG_1":1.2}},{"type":"Feature","id":5,"geometry":{"type":"Point","coordinates":[16.369896320000066,48.21409132000008]},"properties":{"OBJECTID":5,"SOURCE_ID":216,"TotalParcelWeightKG":31.77,"NumParcelsToday":2,"ZONE_ID":40,"Join_Count":1,"District":1,"Address":"Neutorgasse 4/3, 1010","Longitude":16.369896319999999,"Latitude":48.214091320000001,"Postal":1010,"City":"Vienna","NumHouseholds":2,"NumPeople":3,"NumParcelsToday_1":2,"TotalParcelWeightKG_1":31.77}},{"type":"Feature","id":6,"geometry":{"type":"Point","coordinates":[16.369536440000047,48.214634410000031]},"properties":{"OBJECTID":6,"SOURCE_ID":217,"TotalParcelWeightKG":6.7199999999999998,"NumParcelsToday":2,"ZONE_ID":40,"Join_Count":1,"District":1,"Address":"Neutorgasse 6/1, 1010","Longitude":16.369536440000001,"Latitude":48.214634410000002,"Postal":1010,"City":"Vienna","NumHouseholds":1,"NumPeople":5,"NumParcelsToday_1":2,"TotalParcelWeightKG_1":6.7199999999999998}},{"type":"Feature","id":7,"geometry":{"type":"Point","coordinates":[16.371153910000032,48.213925080000081]},"properties":{"OBJECTID":7,"SOURCE_ID":255,"TotalParcelWeightKG":0.71999999999999997,"NumParcelsToday":1,"ZONE_ID":40,"Join_Count":1,"District":1,"Address":"Rudolfsplatz 12, 1010","Longitude":16.37115391,"Latitude":48.213925080000003,"Postal":1010,"City":"Vienna","NumHouseholds":1,"NumPeople":6,"NumParcelsToday_1":1,"TotalParcelWeightKG_1":0.71999999999999997}},{"type":"Feature","id":8,"geometry":{"type":"Point","coordinates":[16.372024270000054,48.214740040000038]},"properties":{"OBJECTID":8,"SOURCE_ID":256,"TotalParcelWeightKG":2.54,"NumParcelsToday":1,"ZONE_ID":40,"Join_Count":1,"District":1,"Address":"Rudolfsplatz 3, 1010","Longitude":16.372024270000001,"Latitude":48.214740040000002,"Postal":1010,"City":"Vienna","NumHouseholds":1,"NumPeople":3,"NumParcelsToday_1":1,"TotalParcelWeightKG_1":2.54}},{"type":"Feature","id":9,"geometry":{"type":"Point","coordinates":[16.372256550000031,48.214582950000079]},"properties":{"OBJECTID":9,"SOURCE_ID":257,"TotalParcelWeightKG":0.46000000000000002,"NumParcelsToday":1,"ZONE_ID":40,"Join_Count":1,"District":1,"Address":"Rudolfsplatz 4, 1010","Longitude":16.372256549999999,"Latitude":48.21458295,"Postal":1010,"City":"Vienna","NumHouseholds":1,"NumPeople":2,"NumParcelsToday_1":1,"TotalParcelWeightKG_1":0.46000000000000002}},{"type":"Feature","id":10,"geometry":{"type":"Point","coordinates":[16.367687980000028,48.215689220000058]},"properties":{"OBJECTID":10,"SOURCE_ID":274,"TotalParcelWeightKG":0.23000000000000001,"NumParcelsToday":1,"ZONE_ID":40,"Join_Count":1,"District":1,"Address":"Schottenring 18/2, 1010","Longitude":16.367687979999999,"Latitude":48.215689220000002,"Postal":1010,"City":"Vienna","NumHouseholds":1,"NumPeople":1,"NumParcelsToday_1":1,"TotalParcelWeightKG_1":0.23000000000000001}},{"type":"Feature","id":11,"geometry":{"type":"Point","coordinates":[16.369876220000037,48.216697070000066]},"properties":{"OBJECTID":11,"SOURCE_ID":275,"TotalParcelWeightKG":2.4500000000000002,"NumParcelsToday":1,"ZONE_ID":40,"Join_Count":1,"District":1,"Address":"Schottenring 28/5, 1010","Longitude":16.369876219999998,"Latitude":48.216697070000002,"Postal":1010,"City":"Vienna","NumHouseholds":1,"NumPeople":1,"NumParcelsToday_1":1,"TotalParcelWeightKG_1":2.4500000000000002}},{"type":"Feature","id":12,"geometry":{"type":"Point","coordinates":[16.369920430000036,48.217003630000079]},"properties":{"OBJECTID":12,"SOURCE_ID":277,"TotalParcelWeightKG":0.17000000000000001,"NumParcelsToday":1,"ZONE_ID":40,"Join_Count":1,"District":1,"Address":"Schottenring 30, 1010","Longitude":16.369920430000001,"Latitude":48.217003630000001,"Postal":1010,"City":"Vienna","NumHouseholds":1,"NumPeople":4,"NumParcelsToday_1":1,"TotalParcelWeightKG_1":0.17000000000000001}},{"type":"Feature","id":13,"geometry":{"type":"Point","coordinates":[16.370182790000058,48.215325700000051]},"properties":{"OBJECTID":13,"SOURCE_ID":334,"TotalParcelWeightKG":0.44,"NumParcelsToday":1,"ZONE_ID":40,"Join_Count":1,"District":1,"Address":"Werdertorgasse 11, 1010","Longitude":16.370182790000001,"Latitude":48.215325700000001,"Postal":1010,"City":"Vienna","NumHouseholds":1,"NumPeople":9,"NumParcelsToday_1":1,"TotalParcelWeightKG_1":0.44}},{"type":"Feature","id":14,"geometry":{"type":"Point","coordinates":[16.371269020000057,48.215147150000064]},"properties":{"OBJECTID":14,"SOURCE_ID":335,"TotalParcelWeightKG":0.69999999999999996,"NumParcelsToday":1,"ZONE_ID":40,"Join_Count":1,"District":1,"Address":"Werdertorgasse 12/2, 1010","Longitude":16.37126902,"Latitude":48.21514715,"Postal":1010,"City":"Vienna","NumHouseholds":1,"NumPeople":1,"NumParcelsToday_1":1,"TotalParcelWeightKG_1":0.69999999999999996}},{"type":"Feature","id":15,"geometry":{"type":"Point","coordinates":[16.369351120000033,48.224544470000069]},"properties":{"OBJECTID":15,"SOURCE_ID":431,"TotalParcelWeightKG":0.84999999999999998,"NumParcelsToday":1,"ZONE_ID":40,"Join_Count":1,"District":2,"Address":"Brigittenauer Lände 2, 1020","Longitude":16.369351120000001,"Latitude":48.224544469999998,"Postal":1020,"City":"Vienna","NumHouseholds":1,"NumPeople":3,"NumParcelsToday_1":1,"TotalParcelWeightKG_1":0.84999999999999998}},{"type":"Feature","id":16,"geometry":{"type":"Point","coordinates":[16.375153370000078,48.217237140000066]},"properties":{"OBJECTID":16,"SOURCE_ID":692,"TotalParcelWeightKG":1.3399999999999999,"NumParcelsToday":3,"ZONE_ID":40,"Join_Count":1,"District":2,"Address":"Floßgasse 16-18/1, 1020","Longitude":16.37515337,"Latitude":48.217237140000002,"Postal":1020,"City":"Vienna","NumHouseholds":2,"NumPeople":6,"NumParcelsToday_1":3,"TotalParcelWeightKG_1":1.3399999999999999}},{"type":"Feature","id":17,"geometry":{"type":"Point","coordinates":[16.375040850000062,48.21739124000004]},"properties":{"OBJECTID":17,"SOURCE_ID":693,"TotalParcelWeightKG":2.2599999999999998,"NumParcelsToday":1,"ZONE_ID":40,"Join_Count":1,"District":2,"Address":"Floßgasse 16-18/3, 1020","Longitude":16.375040850000001,"Latitude":48.217391239999998,"Postal":1020,"City":"Vienna","NumHouseholds":1,"NumPeople":3,"NumParcelsToday_1":1,"TotalParcelWeightKG_1":2.2599999999999998}},{"type":"Feature","id":18,"geometry":{"type":"Point","coordinates":[16.374607620000063,48.216769140000054]},"properties":{"OBJECTID":18,"SOURCE_ID":694,"TotalParcelWeightKG":0.44,"NumParcelsToday":1,"ZONE_ID":40,"Join_Count":1,"District":2,"Address":"Floßgasse 1A, 1020","Longitude":16.374607619999999,"Latitude":48.216769139999997,"Postal":1020,"City":"Vienna","NumHouseholds":1,"NumPeople":2,"NumParcelsToday_1":1,"TotalParcelWeightKG_1":0.44}},{"type":"Feature","id":19,"geometry":{"type":"Point","coordinates":[16.374662300000068,48.217197020000071]},"properties":{"OBJECTID":19,"SOURCE_ID":695,"TotalParcelWeightKG":1.1099999999999999,"NumParcelsToday":2,"ZONE_ID":40,"Join_Count":1,"District":2,"Address":"Floßgasse 5, 1020","Longitude":16.374662300000001,"Latitude":48.21719702,"Postal":1020,"City":"Vienna","NumHouseholds":2,"NumPeople":7,"NumParcelsToday_1":2,"TotalParcelWeightKG_1":1.1099999999999999}},{"type":"Feature","id":20,"geometry":{"type":"Point","coordinates":[16.374686940000061,48.217386770000076]},"properties":{"OBJECTID":20,"SOURCE_ID":696,"TotalParcelWeightKG":0.5,"NumParcelsToday":1,"ZONE_ID":40,"Join_Count":1,"District":2,"Address":"Floßgasse 7, 1020","Longitude":16.37468694,"Latitude":48.217386769999997,"Postal":1020,"City":"Vienna","NumHouseholds":1,"NumPeople":4,"NumParcelsToday_1":1,"TotalParcelWeightKG_1":0.5}},{"type":"Feature","id":21,"geometry":{"type":"Point","coordinates":[16.374710900000025,48.217581190000033]},"properties":{"OBJECTID":21,"SOURCE_ID":697,"TotalParcelWeightKG":0.12,"NumParcelsToday":1,"ZONE_ID":40,"Join_Count":1,"District":2,"Address":"Floßgasse 9, 1020","Longitude":16.3747109,"Latitude":48.217581189999997,"Postal":1020,"City":"Vienna","NumHouseholds":1,"NumPeople":2,"NumParcelsToday_1":1,"TotalParcelWeightKG_1":0.12}},{"type":"Feature","id":22,"geometry":{"type":"Point","coordinates":[16.372333530000049,48.220121820000031]},"properties":{"OBJECTID":22,"SOURCE_ID":698,"TotalParcelWeightKG":1.8,"NumParcelsToday":2,"ZONE_ID":40,"Join_Count":1,"District":2,"Address":"Franz-Hochedlinger-Gasse 1/1, 1020","Longitude":16.372333529999999,"Latitude":48.220121820000003,"Postal":1020,"City":"Vienna","NumHouseholds":2,"NumPeople":6,"NumParcelsToday_1":2,"TotalParcelWeightKG_1":1.8}},{"type":"Feature","id":23,"geometry":{"type":"Point","coordinates":[16.37357073000004,48.219089360000055]},"properties":{"OBJECTID":23,"SOURCE_ID":699,"TotalParcelWeightKG":0.47999999999999998,"NumParcelsToday":1,"ZONE_ID":40,"Join_Count":1,"District":2,"Address":"Franz-Hochedlinger-Gasse 13, 1020","Longitude":16.373570730000001,"Latitude":48.219089359999998,"Postal":1020,"City":"Vienna","NumHouseholds":1,"NumPeople":5,"NumParcelsToday_1":1,"TotalParcelWeightKG_1":0.47999999999999998}},{"type":"Feature","id":24,"geometry":{"type":"Point","coordinates":[16.373480630000074,48.218619950000061]},"properties":{"OBJECTID":24,"SOURCE_ID":700,"TotalParcelWeightKG":4.8300000000000001,"NumParcelsToday":1,"ZONE_ID":40,"Join_Count":2,"District":2,"Address":"Franz-Hochedlinger-Gasse 16, 1020","Longitude":16.37348063,"Latitude":48.218619949999997,"Postal":1020,"City":"Vienna","NumHouseholds":1,"NumPeople":2,"NumParcelsToday_1":1,"TotalParcelWeightKG_1":4.8300000000000001}},{"type":"Feature","id":25,"geometry":{"type":"Point","coordinates":[16.372185080000065,48.219908540000063]},"properties":{"OBJECTID":25,"SOURCE_ID":701,"TotalParcelWeightKG":0.10000000000000001,"NumParcelsToday":1,"ZONE_ID":40,"Join_Count":1,"District":2,"Address":"Franz-Hochedlinger-Gasse 2, 1020","Longitude":16.372185080000001,"Latitude":48.219908539999999,"Postal":1020,"City":"Vienna","NumHouseholds":1,"NumPeople":4,"NumParcelsToday_1":1,"TotalParcelWeightKG_1":0.10000000000000001}},{"type":"Feature","id":26,"geometry":{"type":"Point","coordinates":[16.374314440000035,48.218087820000051]},"properties":{"OBJECTID":26,"SOURCE_ID":702,"TotalParcelWeightKG":2.46,"NumParcelsToday":2,"ZONE_ID":40,"Join_Count":1,"District":2,"Address":"Franz-Hochedlinger-Gasse 24, 1020","Longitude":16.374314439999999,"Latitude":48.218087820000001,"Postal":1020,"City":"Vienna","NumHouseholds":2,"NumPeople":6,"NumParcelsToday_1":2,"TotalParcelWeightKG_1":2.46}},{"type":"Feature","id":27,"geometry":{"type":"Point","coordinates":[16.374504890000026,48.217952320000052]},"properties":{"OBJECTID":27,"SOURCE_ID":703,"TotalParcelWeightKG":0.32000000000000001,"NumParcelsToday":2,"ZONE_ID":40,"Join_Count":1,"District":2,"Address":"Franz-Hochedlinger-Gasse 26, 1020","Longitude":16.374504890000001,"Latitude":48.217952320000002,"Postal":1020,"City":"Vienna","NumHouseholds":1,"NumPeople":5,"NumParcelsToday_1":2,"TotalParcelWeightKG_1":0.32000000000000001}},{"type":"Feature","id":28,"geometry":{"type":"Point","coordinates":[16.374972090000028,48.217220750000081]},"properties":{"OBJECTID":28,"SOURCE_ID":704,"TotalParcelWeightKG":0.70999999999999996,"NumParcelsToday":1,"ZONE_ID":40,"Join_Count":1,"District":2,"Address":"Franz-Hochedlinger-Gasse 30-32/2, 1020","Longitude":16.37497209,"Latitude":48.217220750000003,"Postal":1020,"City":"Vienna","NumHouseholds":1,"NumPeople":1,"NumParcelsToday_1":1,"TotalParcelWeightKG_1":0.70999999999999996}},{"type":"Feature","id":29,"geometry":{"type":"Point","coordinates":[16.372777480000025,48.21972678000003]},"properties":{"OBJECTID":29,"SOURCE_ID":705,"TotalParcelWeightKG":0.68999999999999995,"NumParcelsToday":1,"ZONE_ID":40,"Join_Count":1,"District":2,"Address":"Franz-Hochedlinger-Gasse 5, 1020","Longitude":16.37277748,"Latitude":48.219726780000002,"Postal":1020,"City":"Vienna","NumHouseholds":1,"NumPeople":6,"NumParcelsToday_1":1,"TotalParcelWeightKG_1":0.68999999999999995}},{"type":"Feature","id":30,"geometry":{"type":"Point","coordinates":[16.370358710000062,48.225661570000057]},"properties":{"OBJECTID":30,"SOURCE_ID":769,"TotalParcelWeightKG":0.46000000000000002,"NumParcelsToday":1,"ZONE_ID":40,"Join_Count":1,"District":2,"Address":"Gaußplatz 1, 1020","Longitude":16.370358710000001,"Latitude":48.22566157,"Postal":1020,"City":"Vienna","NumHouseholds":1,"NumPeople":2,"NumParcelsToday_1":1,"TotalParcelWeightKG_1":0.46000000000000002}},{"type":"Feature","id":31,"geometry":{"type":"Point","coordinates":[16.369404820000057,48.225580020000052]},"properties":{"OBJECTID":31,"SOURCE_ID":771,"TotalParcelWeightKG":0.23999999999999999,"NumParcelsToday":1,"ZONE_ID":40,"Join_Count":3,"District":2,"Address":"Gaußplatz 3, 1020","Longitude":16.36940482,"Latitude":48.225580020000002,"Postal":1020,"City":"Vienna","NumHouseholds":1,"NumPeople":4,"NumParcelsToday_1":1,"TotalParcelWeightKG_1":0.23999999999999999}},{"type":"Feature","id":32,"geometry":{"type":"Point","coordinates":[16.379278500000055,48.21399966000007]},"properties":{"OBJECTID":32,"SOURCE_ID":798,"TotalParcelWeightKG":0.17000000000000001,"NumParcelsToday":1,"ZONE_ID":40,"Join_Count":1,"District":2,"Address":"Gredlerstraße 9, 1020","Longitude":16.379278500000002,"Latitude":48.213999659999999,"Postal":1020,"City":"Vienna","NumHouseholds":1,"NumPeople":1,"NumParcelsToday_1":1,"TotalParcelWeightKG_1":0.17000000000000001}},{"type":"Feature","id":33,"geometry":{"type":"Point","coordinates":[16.381693700000028,48.213852220000035]},"properties":{"OBJECTID":33,"SOURCE_ID":799,"TotalParcelWeightKG":1.8100000000000001,"NumParcelsToday":1,"ZONE_ID":40,"Join_Count":1,"District":2,"Address":"Große Mohrengasse 10/3, 1020","Longitude":16.3816937,"Latitude":48.21385222,"Postal":1020,"City":"Vienna","NumHouseholds":1,"NumPeople":1,"NumParcelsToday_1":1,"TotalParcelWeightKG_1":1.8100000000000001}},{"type":"Feature","id":34,"geometry":{"type":"Point","coordinates":[16.381518960000051,48.21390598000005]},"properties":{"OBJECTID":34,"SOURCE_ID":801,"TotalParcelWeightKG":0.75,"NumParcelsToday":1,"ZONE_ID":40,"Join_Count":2,"District":2,"Address":"Große Mohrengasse 10/5, 1020","Longitude":16.381518960000001,"Latitude":48.21390598,"Postal":1020,"City":"Vienna","NumHouseholds":1,"NumPeople":1,"NumParcelsToday_1":1,"TotalParcelWeightKG_1":0.75}},{"type":"Feature","id":35,"geometry":{"type":"Point","coordinates":[16.381131870000047,48.213489300000049]},"properties":{"OBJECTID":35,"SOURCE_ID":820,"TotalParcelWeightKG":0.77000000000000002,"NumParcelsToday":1,"ZONE_ID":40,"Join_Count":1,"District":2,"Address":"Große Mohrengasse 6/2, 1020","Longitude":16.381131870000001,"Latitude":48.213489299999999,"Postal":1020,"City":"Vienna","NumHouseholds":1,"NumPeople":5,"NumParcelsToday_1":1,"TotalParcelWeightKG_1":0.77000000000000002}},{"type":"Feature","id":36,"geometry":{"type":"Point","coordinates":[16.381475710000075,48.213697540000055]},"properties":{"OBJECTID":36,"SOURCE_ID":822,"TotalParcelWeightKG":0.66000000000000003,"NumParcelsToday":1,"ZONE_ID":40,"Join_Count":1,"District":2,"Address":"Große Mohrengasse 8/3, 1020","Longitude":16.38147571,"Latitude":48.213697539999998,"Postal":1020,"City":"Vienna","NumHouseholds":1,"NumPeople":4,"NumParcelsToday_1":1,"TotalParcelWeightKG_1":0.66000000000000003}},{"type":"Feature","id":37,"geometry":{"type":"Point","coordinates":[16.375759720000076,48.216531960000054]},"properties":{"OBJECTID":37,"SOURCE_ID":830,"TotalParcelWeightKG":0.94999999999999996,"NumParcelsToday":1,"ZONE_ID":40,"Join_Count":1,"District":2,"Address":"Große Schiffgasse 12, 1020","Longitude":16.375759720000001,"Latitude":48.216531959999998,"Postal":1020,"City":"Vienna","NumHouseholds":1,"NumPeople":2,"NumParcelsToday_1":1,"TotalParcelWeightKG_1":0.94999999999999996}},{"type":"Feature","id":38,"geometry":{"type":"Point","coordinates":[16.375890750000053,48.217007210000077]},"properties":{"OBJECTID":38,"SOURCE_ID":831,"TotalParcelWeightKG":0.56000000000000005,"NumParcelsToday":2,"ZONE_ID":40,"Join_Count":1,"District":2,"Address":"Große Schiffgasse 16, 1020","Longitude":16.37589075,"Latitude":48.217007209999998,"Postal":1020,"City":"Vienna","NumHouseholds":2,"NumPeople":4,"NumParcelsToday_1":2,"TotalParcelWeightKG_1":0.56000000000000005}},{"type":"Feature","id":39,"geometry":{"type":"Point","coordinates":[16.375430190000031,48.216732710000031]},"properties":{"OBJECTID":39,"SOURCE_ID":839,"TotalParcelWeightKG":0.93999999999999995,"NumParcelsToday":1,"ZONE_ID":40,"Join_Count":1,"District":2,"Address":"Große Schiffgasse 7, 1020","Longitude":16.375430189999999,"Latitude":48.216732710000002,"Postal":1020,"City":"Vienna","NumHouseholds":1,"NumPeople":2,"NumParcelsToday_1":1,"TotalParcelWeightKG_1":0.93999999999999995}},{"type":"Feature","id":40,"geometry":{"type":"Point","coordinates":[16.375393980000069,48.216895320000049]},"properties":{"OBJECTID":40,"SOURCE_ID":840,"TotalParcelWeightKG":1.8300000000000001,"NumParcelsToday":1,"ZONE_ID":40,"Join_Count":1,"District":2,"Address":"Große Schiffgasse 9, 1020","Longitude":16.375393979999998,"Latitude":48.216895319999999,"Postal":1020,"City":"Vienna","NumHouseholds":1,"NumPeople":1,"NumParcelsToday_1":1,"TotalParcelWeightKG_1":1.8300000000000001}},{"type":"Feature","id":41,"geometry":{"type":"Point","coordinates":[16.377541630000053,48.214684050000074]},"properties":{"OBJECTID":41,"SOURCE_ID":923,"TotalParcelWeightKG":0.72999999999999998,"NumParcelsToday":1,"ZONE_ID":40,"Join_Count":1,"District":2,"Address":"Hammer-Purgstall-Gasse 7, 1020","Longitude":16.37754163,"Latitude":48.214684050000002,"Postal":1020,"City":"Vienna","NumHouseholds":1,"NumPeople":3,"NumParcelsToday_1":1,"TotalParcelWeightKG_1":0.72999999999999998}},{"type":"Feature","id":42,"geometry":{"type":"Point","coordinates":[16.377917810000042,48.214672690000043]},"properties":{"OBJECTID":42,"SOURCE_ID":924,"TotalParcelWeightKG":0.93999999999999995,"NumParcelsToday":1,"ZONE_ID":40,"Join_Count":1,"District":2,"Address":"Hammer-Purgstall-Gasse 9, 1020","Longitude":16.37791781,"Latitude":48.21467269,"Postal":1020,"City":"Vienna","NumHouseholds":1,"NumPeople":2,"NumParcelsToday_1":1,"TotalParcelWeightKG_1":0.93999999999999995}},{"type":"Feature","id":43,"geometry":{"type":"Point","coordinates":[16.37315932000007,48.217936210000062]},"properties":{"OBJECTID":43,"SOURCE_ID":1034,"TotalParcelWeightKG":1.6100000000000001,"NumParcelsToday":3,"ZONE_ID":40,"Join_Count":1,"District":2,"Address":"Herminengasse 1, 1020","Longitude":16.373159319999999,"Latitude":48.217936209999998,"Postal":1020,"City":"Vienna","NumHouseholds":2,"NumPeople":11,"NumParcelsToday_1":3,"TotalParcelWeightKG_1":1.6100000000000001}},{"type":"Feature","id":44,"geometry":{"type":"Point","coordinates":[16.37456222000003,48.218327490000036]},"properties":{"OBJECTID":44,"SOURCE_ID":1035,"TotalParcelWeightKG":1.5,"NumParcelsToday":2,"ZONE_ID":40,"Join_Count":1,"District":2,"Address":"Herminengasse 10, 1020","Longitude":16.374562220000001,"Latitude":48.21832749,"Postal":1020,"City":"Vienna","NumHouseholds":2,"NumPeople":8,"NumParcelsToday_1":2,"TotalParcelWeightKG_1":1.5}},{"type":"Feature","id":45,"geometry":{"type":"Point","coordinates":[16.373556080000071,48.217525420000072]},"properties":{"OBJECTID":45,"SOURCE_ID":1038,"TotalParcelWeightKG":1.3500000000000001,"NumParcelsToday":2,"ZONE_ID":40,"Join_Count":1,"District":2,"Address":"Herminengasse 2, 1020","Longitude":16.37355608,"Latitude":48.217525420000001,"Postal":1020,"City":"Vienna","NumHouseholds":2,"NumPeople":4,"NumParcelsToday_1":2,"TotalParcelWeightKG_1":1.3500000000000001}},{"type":"Feature","id":46,"geometry":{"type":"Point","coordinates":[16.373764540000025,48.217847430000063]},"properties":{"OBJECTID":46,"SOURCE_ID":1041,"TotalParcelWeightKG":7.2999999999999998,"NumParcelsToday":1,"ZONE_ID":40,"Join_Count":1,"District":2,"Address":"Herminengasse 4/1, 1020","Longitude":16.37376454,"Latitude":48.217847429999999,"Postal":1020,"City":"Vienna","NumHouseholds":1,"NumPeople":3,"NumParcelsToday_1":1,"TotalParcelWeightKG_1":7.2999999999999998}},{"type":"Feature","id":47,"geometry":{"type":"Point","coordinates":[16.373872340000048,48.218033020000064]},"properties":{"OBJECTID":47,"SOURCE_ID":1042,"TotalParcelWeightKG":0.040000000000000001,"NumParcelsToday":1,"ZONE_ID":40,"Join_Count":1,"District":2,"Address":"Herminengasse 6, 1020","Longitude":16.373872339999998,"Latitude":48.21803302,"Postal":1020,"City":"Vienna","NumHouseholds":1,"NumPeople":3,"NumParcelsToday_1":1,"TotalParcelWeightKG_1":0.040000000000000001}},{"type":"Feature","id":48,"geometry":{"type":"Point","coordinates":[16.376643840000042,48.215030690000049]},"properties":{"OBJECTID":48,"SOURCE_ID":1057,"TotalParcelWeightKG":0.60999999999999999,"NumParcelsToday":1,"ZONE_ID":40,"Join_Count":1,"District":2,"Address":"Hollandstraße 6, 1020","Longitude":16.37664384,"Latitude":48.215030689999999,"Postal":1020,"City":"Vienna","NumHouseholds":1,"NumPeople":5,"NumParcelsToday_1":1,"TotalParcelWeightKG_1":0.60999999999999999}},{"type":"Feature","id":49,"geometry":{"type":"Point","coordinates":[16.374784490000025,48.218085410000072]},"properties":{"OBJECTID":49,"SOURCE_ID":1438,"TotalParcelWeightKG":0.42999999999999999,"NumParcelsToday":1,"ZONE_ID":40,"Join_Count":1,"District":2,"Address":"Nickelgasse 1, 1020","Longitude":16.37478449,"Latitude":48.21808541,"Postal":1020,"City":"Vienna","NumHouseholds":1,"NumPeople":1,"NumParcelsToday_1":1,"TotalParcelWeightKG_1":0.42999999999999999}},{"type":"Feature","id":50,"geometry":{"type":"Point","coordinates":[16.369767730000035,48.224643370000081]},"properties":{"OBJECTID":50,"SOURCE_ID":1535,"TotalParcelWeightKG":0.89000000000000001,"NumParcelsToday":1,"ZONE_ID":40,"Join_Count":1,"District":2,"Address":"Obere Donaustraße 11/1, 1020","Longitude":16.36976773,"Latitude":48.224643370000003,"Postal":1020,"City":"Vienna","NumHouseholds":1,"NumPeople":1,"NumParcelsToday_1":1,"TotalParcelWeightKG_1":0.89000000000000001}},{"type":"Feature","id":51,"geometry":{"type":"Point","coordinates":[16.369975370000077,48.223967230000028]},"properties":{"OBJECTID":51,"SOURCE_ID":1536,"TotalParcelWeightKG":3.8199999999999998,"NumParcelsToday":1,"ZONE_ID":40,"Join_Count":1,"District":2,"Address":"Obere Donaustraße 15A/1, 1020","Longitude":16.369975369999999,"Latitude":48.22396723,"Postal":1020,"City":"Vienna","NumHouseholds":1,"NumPeople":1,"NumParcelsToday_1":1,"TotalParcelWeightKG_1":3.8199999999999998}},{"type":"Feature","id":52,"geometry":{"type":"Point","coordinates":[16.369404820000057,48.225580020000052]},"properties":{"OBJECTID":52,"SOURCE_ID":1537,"TotalParcelWeightKG":0.82000000000000006,"NumParcelsToday":2,"ZONE_ID":40,"Join_Count":3,"District":2,"Address":"Gaußplatz 3, 1020","Longitude":16.36940482,"Latitude":48.225580020000002,"Postal":1020,"City":"Vienna","NumHouseholds":1,"NumPeople":4,"NumParcelsToday_1":1,"TotalParcelWeightKG_1":0.23999999999999999}},{"type":"Feature","id":53,"geometry":{"type":"Point","coordinates":[16.370709140000031,48.223401220000028]},"properties":{"OBJECTID":53,"SOURCE_ID":1538,"TotalParcelWeightKG":1.24,"NumParcelsToday":2,"ZONE_ID":40,"Join_Count":1,"District":2,"Address":"Obere Donaustraße 21/2, 1020","Longitude":16.370709139999999,"Latitude":48.22340122,"Postal":1020,"City":"Vienna","NumHouseholds":2,"NumPeople":4,"NumParcelsToday_1":2,"TotalParcelWeightKG_1":1.24}},{"type":"Feature","id":54,"geometry":{"type":"Point","coordinates":[16.37016342000004,48.223630440000079]},"properties":{"OBJECTID":54,"SOURCE_ID":1539,"TotalParcelWeightKG":0.20000000000000001,"NumParcelsToday":1,"ZONE_ID":40,"Join_Count":1,"District":2,"Address":"Obere Donaustraße 21/3, 1020","Longitude":16.370163420000001,"Latitude":48.223630440000001,"Postal":1020,"City":"Vienna","NumHouseholds":1,"NumPeople":4,"NumParcelsToday_1":1,"TotalParcelWeightKG_1":0.20000000000000001}},{"type":"Feature","id":55,"geometry":{"type":"Point","coordinates":[16.372642350000035,48.217812090000052]},"properties":{"OBJECTID":55,"SOURCE_ID":1540,"TotalParcelWeightKG":0.70999999999999996,"NumParcelsToday":1,"ZONE_ID":40,"Join_Count":1,"District":2,"Address":"Obere Donaustraße 26, 1020","Longitude":16.37264235,"Latitude":48.217812090000002,"Postal":1020,"City":"Vienna","NumHouseholds":1,"NumPeople":1,"NumParcelsToday_1":1,"TotalParcelWeightKG_1":0.70999999999999996}},{"type":"Feature","id":56,"geometry":{"type":"Point","coordinates":[16.369777120000037,48.221117960000072]},"properties":{"OBJECTID":56,"SOURCE_ID":1541,"TotalParcelWeightKG":2.8199999999999998,"NumParcelsToday":1,"ZONE_ID":40,"Join_Count":1,"District":2,"Address":"Obere Donaustraße 33, 1020","Longitude":16.369777119999998,"Latitude":48.221117960000001,"Postal":1020,"City":"Vienna","NumHouseholds":1,"NumPeople":1,"NumParcelsToday_1":1,"TotalParcelWeightKG_1":2.8199999999999998}},{"type":"Feature","id":57,"geometry":{"type":"Point","coordinates":[16.369728350000059,48.220831090000047]},"properties":{"OBJECTID":57,"SOURCE_ID":1542,"TotalParcelWeightKG":0.5,"NumParcelsToday":1,"ZONE_ID":40,"Join_Count":1,"District":2,"Address":"Obere Donaustraße 35, 1020","Longitude":16.369728349999999,"Latitude":48.220831089999997,"Postal":1020,"City":"Vienna","NumHouseholds":1,"NumPeople":4,"NumParcelsToday_1":1,"TotalParcelWeightKG_1":0.5}},{"type":"Feature","id":58,"geometry":{"type":"Point","coordinates":[16.370465370000034,48.220136600000046]},"properties":{"OBJECTID":58,"SOURCE_ID":1543,"TotalParcelWeightKG":1.71,"NumParcelsToday":2,"ZONE_ID":40,"Join_Count":1,"District":2,"Address":"Obere Donaustraße 43/1, 1020","Longitude":16.370465370000002,"Latitude":48.220136599999996,"Postal":1020,"City":"Vienna","NumHouseholds":2,"NumPeople":4,"NumParcelsToday_1":2,"TotalParcelWeightKG_1":1.71}},{"type":"Feature","id":59,"geometry":{"type":"Point","coordinates":[16.371243610000022,48.220723260000057]},"properties":{"OBJECTID":59,"SOURCE_ID":1544,"TotalParcelWeightKG":0.5,"NumParcelsToday":1,"ZONE_ID":40,"Join_Count":1,"District":2,"Address":"Obere Donaustraße 43/3, 1020","Longitude":16.371243610000001,"Latitude":48.22072326,"Postal":1020,"City":"Vienna","NumHouseholds":1,"NumPeople":2,"NumParcelsToday_1":1,"TotalParcelWeightKG_1":0.5}},{"type":"Feature","id":60,"geometry":{"type":"Point","coordinates":[16.37083731000007,48.219697530000076]},"properties":{"OBJECTID":60,"SOURCE_ID":1545,"TotalParcelWeightKG":0.82999999999999996,"NumParcelsToday":1,"ZONE_ID":40,"Join_Count":2,"District":2,"Address":"Obere Donaustraße 45B/1, 1020","Longitude":16.370837309999999,"Latitude":48.219697529999998,"Postal":1020,"City":"Vienna","NumHouseholds":1,"NumPeople":4,"NumParcelsToday_1":1,"TotalParcelWeightKG_1":0.82999999999999996}},{"type":"Feature","id":61,"geometry":{"type":"Point","coordinates":[16.370966300000077,48.219606120000037]},"properties":{"OBJECTID":61,"SOURCE_ID":1546,"TotalParcelWeightKG":0.90000000000000002,"NumParcelsToday":1,"ZONE_ID":40,"Join_Count":1,"District":2,"Address":"Obere Donaustraße 45B/2, 1020","Longitude":16.370966299999999,"Latitude":48.219606120000002,"Postal":1020,"City":"Vienna","NumHouseholds":1,"NumPeople":4,"NumParcelsToday_1":1,"TotalParcelWeightKG_1":0.90000000000000002}},{"type":"Feature","id":62,"geometry":{"type":"Point","coordinates":[16.371300200000064,48.219837860000041]},"properties":{"OBJECTID":62,"SOURCE_ID":1547,"TotalParcelWeightKG":0.17000000000000001,"NumParcelsToday":1,"ZONE_ID":40,"Join_Count":1,"District":2,"Address":"Obere Donaustraße 45B/4, 1020","Longitude":16.3713002,"Latitude":48.219837859999998,"Postal":1020,"City":"Vienna","NumHouseholds":1,"NumPeople":2,"NumParcelsToday_1":1,"TotalParcelWeightKG_1":0.17000000000000001}},{"type":"Feature","id":63,"geometry":{"type":"Point","coordinates":[16.371091970000066,48.220170040000028]},"properties":{"OBJECTID":63,"SOURCE_ID":1548,"TotalParcelWeightKG":0.080000000000000002,"NumParcelsToday":1,"ZONE_ID":40,"Join_Count":1,"District":2,"Address":"Obere Donaustraße 45B/6, 1020","Longitude":16.371091969999998,"Latitude":48.220170039999999,"Postal":1020,"City":"Vienna","NumHouseholds":1,"NumPeople":2,"NumParcelsToday_1":1,"TotalParcelWeightKG_1":0.080000000000000002}},{"type":"Feature","id":64,"geometry":{"type":"Point","coordinates":[16.371290600000066,48.219372380000038]},"properties":{"OBJECTID":64,"SOURCE_ID":1549,"TotalParcelWeightKG":1.4299999999999999,"NumParcelsToday":1,"ZONE_ID":40,"Join_Count":2,"District":2,"Address":"Obere Donaustraße 47/2, 1020","Longitude":16.371290599999998,"Latitude":48.219372380000003,"Postal":1020,"City":"Vienna","NumHouseholds":1,"NumPeople":4,"NumParcelsToday_1":1,"TotalParcelWeightKG_1":1.4299999999999999}},{"type":"Feature","id":65,"geometry":{"type":"Point","coordinates":[16.372176330000059,48.218756880000058]},"properties":{"OBJECTID":65,"SOURCE_ID":1550,"TotalParcelWeightKG":0.85999999999999999,"NumParcelsToday":1,"ZONE_ID":40,"Join_Count":1,"District":2,"Address":"Obere Donaustraße 53, 1020","Longitude":16.372176329999999,"Latitude":48.218756880000001,"Postal":1020,"City":"Vienna","NumHouseholds":1,"NumPeople":1,"NumParcelsToday_1":1,"TotalParcelWeightKG_1":0.85999999999999999}},{"type":"Feature","id":66,"geometry":{"type":"Point","coordinates":[16.373944380000069,48.217365520000044]},"properties":{"OBJECTID":66,"SOURCE_ID":1551,"TotalParcelWeightKG":1.4100000000000001,"NumParcelsToday":2,"ZONE_ID":40,"Join_Count":1,"District":2,"Address":"Obere Donaustraße 63/2, 1020","Longitude":16.373944380000001,"Latitude":48.217365520000001,"Postal":1020,"City":"Vienna","NumHouseholds":2,"NumPeople":4,"NumParcelsToday_1":2,"TotalParcelWeightKG_1":1.4100000000000001}},{"type":"Feature","id":67,"geometry":{"type":"Point","coordinates":[16.374105670000063,48.216927500000054]},"properties":{"OBJECTID":67,"SOURCE_ID":1552,"TotalParcelWeightKG":0.81000000000000005,"NumParcelsToday":1,"ZONE_ID":40,"Join_Count":1,"District":2,"Address":"Obere Donaustraße 65/2, 1020","Longitude":16.374105669999999,"Latitude":48.216927499999997,"Postal":1020,"City":"Vienna","NumHouseholds":1,"NumPeople":1,"NumParcelsToday_1":1,"TotalParcelWeightKG_1":0.81000000000000005}},{"type":"Feature","id":68,"geometry":{"type":"Point","coordinates":[16.374135030000048,48.216781800000035]},"properties":{"OBJECTID":68,"SOURCE_ID":1553,"TotalParcelWeightKG":0.89000000000000001,"NumParcelsToday":1,"ZONE_ID":40,"Join_Count":1,"District":2,"Address":"Obere Donaustraße 67, 1020","Longitude":16.374135030000001,"Latitude":48.2167818,"Postal":1020,"City":"Vienna","NumHouseholds":1,"NumPeople":4,"NumParcelsToday_1":1,"TotalParcelWeightKG_1":0.89000000000000001}},{"type":"Feature","id":69,"geometry":{"type":"Point","coordinates":[16.374257640000053,48.216662090000057]},"properties":{"OBJECTID":69,"SOURCE_ID":1554,"TotalParcelWeightKG":5.5400000000000009,"NumParcelsToday":2,"ZONE_ID":40,"Join_Count":1,"District":2,"Address":"Obere Donaustraße 67A, 1020","Longitude":16.37425764,"Latitude":48.21666209,"Postal":1020,"City":"Vienna","NumHouseholds":2,"NumPeople":3,"NumParcelsToday_1":2,"TotalParcelWeightKG_1":5.5400000000000009}},{"type":"Feature","id":70,"geometry":{"type":"Point","coordinates":[16.369776430000059,48.220466400000078]},"properties":{"OBJECTID":70,"SOURCE_ID":1565,"TotalParcelWeightKG":0.84999999999999998,"NumParcelsToday":1,"ZONE_ID":40,"Join_Count":1,"District":2,"Address":"Obere Donaustraße GGUE. 39(GASDRUCKREGLER), 1020","Longitude":16.369776430000002,"Latitude":48.220466399999999,"Postal":1020,"City":"Vienna","NumHouseholds":1,"NumPeople":4,"NumParcelsToday_1":1,"TotalParcelWeightKG_1":0.84999999999999998}},{"type":"Feature","id":71,"geometry":{"type":"Point","coordinates":[16.370758780000074,48.219599530000039]},"properties":{"OBJECTID":71,"SOURCE_ID":1566,"TotalParcelWeightKG":1.3,"NumParcelsToday":2,"ZONE_ID":40,"Join_Count":1,"District":2,"Address":"Obere Donaustraße VOR 45B(GASDRUCKREGLER), 1020","Longitude":16.370758779999999,"Latitude":48.219599530000004,"Postal":1020,"City":"Vienna","NumHouseholds":2,"NumPeople":4,"NumParcelsToday_1":2,"TotalParcelWeightKG_1":1.3}},{"type":"Feature","id":72,"geometry":{"type":"Point","coordinates":[16.369404820000057,48.225580020000052]},"properties":{"OBJECTID":72,"SOURCE_ID":1610,"TotalParcelWeightKG":1.3799999999999999,"NumParcelsToday":1,"ZONE_ID":40,"Join_Count":3,"District":2,"Address":"Gaußplatz 3, 1020","Longitude":16.36940482,"Latitude":48.225580020000002,"Postal":1020,"City":"Vienna","NumHouseholds":1,"NumPeople":4,"NumParcelsToday_1":1,"TotalParcelWeightKG_1":0.23999999999999999}},{"type":"Feature","id":73,"geometry":{"type":"Point","coordinates":[16.382044900000039,48.213857120000057]},"properties":{"OBJECTID":73,"SOURCE_ID":1688,"TotalParcelWeightKG":5.1999999999999993,"NumParcelsToday":3,"ZONE_ID":40,"Join_Count":1,"District":2,"Address":"Praterstraße 17/1, 1020","Longitude":16.3820449,"Latitude":48.21385712,"Postal":1020,"City":"Vienna","NumHouseholds":2,"NumPeople":9,"NumParcelsToday_1":3,"TotalParcelWeightKG_1":5.1999999999999993}},{"type":"Feature","id":74,"geometry":{"type":"Point","coordinates":[16.381518960000051,48.21390598000005]},"properties":{"OBJECTID":74,"SOURCE_ID":1689,"TotalParcelWeightKG":0.27000000000000002,"NumParcelsToday":1,"ZONE_ID":40,"Join_Count":2,"District":2,"Address":"Große Mohrengasse 10/5, 1020","Longitude":16.381518960000001,"Latitude":48.21390598,"Postal":1020,"City":"Vienna","NumHouseholds":1,"NumPeople":1,"NumParcelsToday_1":1,"TotalParcelWeightKG_1":0.75}},{"type":"Feature","id":75,"geometry":{"type":"Point","coordinates":[16.382638330000077,48.213882330000047]},"properties":{"OBJECTID":75,"SOURCE_ID":1691,"TotalParcelWeightKG":0.41999999999999998,"NumParcelsToday":1,"ZONE_ID":40,"Join_Count":1,"District":2,"Address":"Praterstraße 21, 1020","Longitude":16.382638329999999,"Latitude":48.213882329999997,"Postal":1020,"City":"Vienna","NumHouseholds":1,"NumPeople":4,"NumParcelsToday_1":1,"TotalParcelWeightKG_1":0.41999999999999998}},{"type":"Feature","id":76,"geometry":{"type":"Point","coordinates":[16.383719580000047,48.213958870000056]},"properties":{"OBJECTID":76,"SOURCE_ID":1694,"TotalParcelWeightKG":9.5399999999999991,"NumParcelsToday":1,"ZONE_ID":40,"Join_Count":1,"District":2,"Address":"Praterstraße 26/2, 1020","Longitude":16.383719580000001,"Latitude":48.213958869999999,"Postal":1020,"City":"Vienna","NumHouseholds":1,"NumPeople":3,"NumParcelsToday_1":1,"TotalParcelWeightKG_1":9.5399999999999991}},{"type":"Feature","id":77,"geometry":{"type":"Point","coordinates":[16.38614640000003,48.214984680000043]},"properties":{"OBJECTID":77,"SOURCE_ID":1703,"TotalParcelWeightKG":1.6899999999999999,"NumParcelsToday":1,"ZONE_ID":40,"Join_Count":1,"District":2,"Address":"Praterstraße 42/3, 1020","Longitude":16.386146400000001,"Latitude":48.214984680000001,"Postal":1020,"City":"Vienna","NumHouseholds":1,"NumPeople":3,"NumParcelsToday_1":1,"TotalParcelWeightKG_1":1.6899999999999999}},{"type":"Feature","id":78,"geometry":{"type":"Point","coordinates":[16.371315370000048,48.221538100000032]},"properties":{"OBJECTID":78,"SOURCE_ID":1746,"TotalParcelWeightKG":0.65000000000000002,"NumParcelsToday":1,"ZONE_ID":40,"Join_Count":1,"District":2,"Address":"Rembrandtstraße 17, 1020","Longitude":16.371315370000001,"Latitude":48.221538099999997,"Postal":1020,"City":"Vienna","NumHouseholds":1,"NumPeople":2,"NumParcelsToday_1":1,"TotalParcelWeightKG_1":0.65000000000000002}},{"type":"Feature","id":79,"geometry":{"type":"Point","coordinates":[16.370129490000068,48.220569000000069]},"properties":{"OBJECTID":79,"SOURCE_ID":1753,"TotalParcelWeightKG":0.39000000000000001,"NumParcelsToday":1,"ZONE_ID":40,"Join_Count":1,"District":2,"Address":"Rembrandtstraße 3, 1020","Longitude":16.37012949,"Latitude":48.220568999999998,"Postal":1020,"City":"Vienna","NumHouseholds":1,"NumPeople":1,"NumParcelsToday_1":1,"TotalParcelWeightKG_1":0.39000000000000001}},{"type":"Feature","id":80,"geometry":{"type":"Point","coordinates":[16.370464630000072,48.22084220000005]},"properties":{"OBJECTID":80,"SOURCE_ID":1758,"TotalParcelWeightKG":0.28000000000000003,"NumParcelsToday":1,"ZONE_ID":40,"Join_Count":1,"District":2,"Address":"Rembrandtstraße 7, 1020","Longitude":16.370464630000001,"Latitude":48.2208422,"Postal":1020,"City":"Vienna","NumHouseholds":1,"NumPeople":3,"NumParcelsToday_1":1,"TotalParcelWeightKG_1":0.28000000000000003}},{"type":"Feature","id":81,"geometry":{"type":"Point","coordinates":[16.370746110000027,48.220754430000056]},"properties":{"OBJECTID":81,"SOURCE_ID":1759,"TotalParcelWeightKG":0.45000000000000001,"NumParcelsToday":1,"ZONE_ID":40,"Join_Count":1,"District":2,"Address":"Rembrandtstraße 8, 1020","Longitude":16.370746109999999,"Latitude":48.22075443,"Postal":1020,"City":"Vienna","NumHouseholds":1,"NumPeople":5,"NumParcelsToday_1":1,"TotalParcelWeightKG_1":0.45000000000000001}},{"type":"Feature","id":82,"geometry":{"type":"Point","coordinates":[16.373014090000026,48.218649600000049]},"properties":{"OBJECTID":82,"SOURCE_ID":1819,"TotalParcelWeightKG":0.34000000000000002,"NumParcelsToday":1,"ZONE_ID":40,"Join_Count":1,"District":2,"Address":"Schiffamtsgasse 1-3, 1020","Longitude":16.373014090000002,"Latitude":48.218649599999999,"Postal":1020,"City":"Vienna","NumHouseholds":1,"NumPeople":4,"NumParcelsToday_1":1,"TotalParcelWeightKG_1":0.34000000000000002}},{"type":"Feature","id":83,"geometry":{"type":"Point","coordinates":[16.372970680000037,48.218165060000047]},"properties":{"OBJECTID":83,"SOURCE_ID":1822,"TotalParcelWeightKG":0.5,"NumParcelsToday":1,"ZONE_ID":40,"Join_Count":1,"District":2,"Address":"Schiffamtsgasse 2, 1020","Longitude":16.372970680000002,"Latitude":48.218165059999997,"Postal":1020,"City":"Vienna","NumHouseholds":1,"NumPeople":3,"NumParcelsToday_1":1,"TotalParcelWeightKG_1":0.5}},{"type":"Feature","id":84,"geometry":{"type":"Point","coordinates":[16.373337350000043,48.218300200000044]},"properties":{"OBJECTID":84,"SOURCE_ID":1825,"TotalParcelWeightKG":1.01,"NumParcelsToday":2,"ZONE_ID":40,"Join_Count":1,"District":2,"Address":"Schiffamtsgasse 4-6/3, 1020","Longitude":16.37333735,"Latitude":48.218300200000002,"Postal":1020,"City":"Vienna","NumHouseholds":2,"NumPeople":10,"NumParcelsToday_1":2,"TotalParcelWeightKG_1":1.01}},{"type":"Feature","id":85,"geometry":{"type":"Point","coordinates":[16.373480630000074,48.218619950000061]},"properties":{"OBJECTID":85,"SOURCE_ID":1827,"TotalParcelWeightKG":1.1299999999999999,"NumParcelsToday":1,"ZONE_ID":40,"Join_Count":2,"District":2,"Address":"Franz-Hochedlinger-Gasse 16, 1020","Longitude":16.37348063,"Latitude":48.218619949999997,"Postal":1020,"City":"Vienna","NumHouseholds":1,"NumPeople":2,"NumParcelsToday_1":1,"TotalParcelWeightKG_1":4.8300000000000001}},{"type":"Feature","id":86,"geometry":{"type":"Point","coordinates":[16.370769920000043,48.225116920000062]},"properties":{"OBJECTID":86,"SOURCE_ID":1844,"TotalParcelWeightKG":2.6699999999999999,"NumParcelsToday":1,"ZONE_ID":40,"Join_Count":1,"District":2,"Address":"Scholzgasse 13, 1020","Longitude":16.370769920000001,"Latitude":48.225116919999998,"Postal":1020,"City":"Vienna","NumHouseholds":1,"NumPeople":3,"NumParcelsToday_1":1,"TotalParcelWeightKG_1":2.6699999999999999}},{"type":"Feature","id":87,"geometry":{"type":"Point","coordinates":[16.369999170000028,48.224568020000049]},"properties":{"OBJECTID":87,"SOURCE_ID":1846,"TotalParcelWeightKG":0.27000000000000002,"NumParcelsToday":1,"ZONE_ID":40,"Join_Count":1,"District":2,"Address":"Scholzgasse 3/2, 1020","Longitude":16.36999917,"Latitude":48.22456802,"Postal":1020,"City":"Vienna","NumHouseholds":1,"NumPeople":2,"NumParcelsToday_1":1,"TotalParcelWeightKG_1":0.27000000000000002}},{"type":"Feature","id":88,"geometry":{"type":"Point","coordinates":[16.369890070000054,48.224227940000048]},"properties":{"OBJECTID":88,"SOURCE_ID":1847,"TotalParcelWeightKG":0.29999999999999999,"NumParcelsToday":1,"ZONE_ID":40,"Join_Count":1,"District":2,"Address":"Scholzgasse 4, 1020","Longitude":16.36989007,"Latitude":48.224227939999999,"Postal":1020,"City":"Vienna","NumHouseholds":1,"NumPeople":6,"NumParcelsToday_1":1,"TotalParcelWeightKG_1":0.29999999999999999}},{"type":"Feature","id":89,"geometry":{"type":"Point","coordinates":[16.370085580000023,48.224366280000027]},"properties":{"OBJECTID":89,"SOURCE_ID":1848,"TotalParcelWeightKG":0.29999999999999999,"NumParcelsToday":1,"ZONE_ID":40,"Join_Count":1,"District":2,"Address":"Scholzgasse 6, 1020","Longitude":16.370085580000001,"Latitude":48.224366279999998,"Postal":1020,"City":"Vienna","NumHouseholds":1,"NumPeople":8,"NumParcelsToday_1":1,"TotalParcelWeightKG_1":0.29999999999999999}},{"type":"Feature","id":90,"geometry":{"type":"Point","coordinates":[16.370300610000072,48.224518110000076]},"properties":{"OBJECTID":90,"SOURCE_ID":1849,"TotalParcelWeightKG":0.82999999999999996,"NumParcelsToday":1,"ZONE_ID":40,"Join_Count":1,"District":2,"Address":"Scholzgasse 8, 1020","Longitude":16.370300610000001,"Latitude":48.224518109999998,"Postal":1020,"City":"Vienna","NumHouseholds":1,"NumPeople":5,"NumParcelsToday_1":1,"TotalParcelWeightKG_1":0.82999999999999996}},{"type":"Feature","id":91,"geometry":{"type":"Point","coordinates":[16.370436070000039,48.224960680000038]},"properties":{"OBJECTID":91,"SOURCE_ID":1850,"TotalParcelWeightKG":1.3799999999999999,"NumParcelsToday":1,"ZONE_ID":40,"Join_Count":1,"District":2,"Address":"Scholzgasse 9, 1020","Longitude":16.37043607,"Latitude":48.224960680000002,"Postal":1020,"City":"Vienna","NumHouseholds":1,"NumPeople":2,"NumParcelsToday_1":1,"TotalParcelWeightKG_1":1.3799999999999999}},{"type":"Feature","id":92,"geometry":{"type":"Point","coordinates":[16.379606200000069,48.213744040000051]},"properties":{"OBJECTID":92,"SOURCE_ID":2001,"TotalParcelWeightKG":24.649999999999999,"NumParcelsToday":1,"ZONE_ID":40,"Join_Count":2,"District":2,"Address":"Gredlerstraße 12, 1020","Longitude":16.379606200000001,"Latitude":48.213744040000002,"Postal":1020,"City":"Vienna","NumHouseholds":1,"NumPeople":3,"NumParcelsToday_1":1,"TotalParcelWeightKG_1":19.140000000000001}},{"type":"Feature","id":93,"geometry":{"type":"Point","coordinates":[16.37083731000007,48.219697530000076]},"properties":{"OBJECTID":93,"SOURCE_ID":2068,"TotalParcelWeightKG":0.64000000000000001,"NumParcelsToday":1,"ZONE_ID":40,"Join_Count":2,"District":2,"Address":"Obere Donaustraße 45B/1, 1020","Longitude":16.370837309999999,"Latitude":48.219697529999998,"Postal":1020,"City":"Vienna","NumHouseholds":1,"NumPeople":4,"NumParcelsToday_1":1,"TotalParcelWeightKG_1":0.82999999999999996}},{"type":"Feature","id":94,"geometry":{"type":"Point","coordinates":[16.372446910000065,48.220026450000034]},"properties":{"OBJECTID":94,"SOURCE_ID":2069,"TotalParcelWeightKG":1.24,"NumParcelsToday":1,"ZONE_ID":40,"Join_Count":1,"District":2,"Address":"Untere Augartenstraße 14/2, 1020","Longitude":16.372446910000001,"Latitude":48.220026449999999,"Postal":1020,"City":"Vienna","NumHouseholds":1,"NumPeople":3,"NumParcelsToday_1":1,"TotalParcelWeightKG_1":1.24}},{"type":"Feature","id":95,"geometry":{"type":"Point","coordinates":[16.371358210000039,48.219254370000044]},"properties":{"OBJECTID":95,"SOURCE_ID":2071,"TotalParcelWeightKG":0.25,"NumParcelsToday":1,"ZONE_ID":40,"Join_Count":1,"District":2,"Address":"Untere Augartenstraße 2/1, 1020","Longitude":16.37135821,"Latitude":48.219254370000002,"Postal":1020,"City":"Vienna","NumHouseholds":1,"NumPeople":2,"NumParcelsToday_1":1,"TotalParcelWeightKG_1":0.25}},{"type":"Feature","id":96,"geometry":{"type":"Point","coordinates":[16.371290600000066,48.219372380000038]},"properties":{"OBJECTID":96,"SOURCE_ID":2072,"TotalParcelWeightKG":0.25,"NumParcelsToday":1,"ZONE_ID":40,"Join_Count":2,"District":2,"Address":"Obere Donaustraße 47/2, 1020","Longitude":16.371290599999998,"Latitude":48.219372380000003,"Postal":1020,"City":"Vienna","NumHouseholds":1,"NumPeople":4,"NumParcelsToday_1":1,"TotalParcelWeightKG_1":1.4299999999999999}},{"type":"Feature","id":97,"geometry":{"type":"Point","coordinates":[16.371679440000037,48.220041440000045]},"properties":{"OBJECTID":97,"SOURCE_ID":2084,"TotalParcelWeightKG":0.5,"NumParcelsToday":1,"ZONE_ID":40,"Join_Count":1,"District":2,"Address":"Untere Augartenstraße 5/1, 1020","Longitude":16.371679440000001,"Latitude":48.220041440000003,"Postal":1020,"City":"Vienna","NumHouseholds":1,"NumPeople":3,"NumParcelsToday_1":1,"TotalParcelWeightKG_1":0.5}},{"type":"Feature","id":98,"geometry":{"type":"Point","coordinates":[16.371433310000043,48.220445850000033]},"properties":{"OBJECTID":98,"SOURCE_ID":2085,"TotalParcelWeightKG":0.19,"NumParcelsToday":1,"ZONE_ID":40,"Join_Count":1,"District":2,"Address":"Untere Augartenstraße 5/4, 1020","Longitude":16.37143331,"Latitude":48.220445849999997,"Postal":1020,"City":"Vienna","NumHouseholds":1,"NumPeople":3,"NumParcelsToday_1":1,"TotalParcelWeightKG_1":0.19}},{"type":"Feature","id":99,"geometry":{"type":"Point","coordinates":[16.369188120000047,48.220556680000072]},"properties":{"OBJECTID":99,"SOURCE_ID":2304,"TotalParcelWeightKG":27.66,"NumParcelsToday":1,"ZONE_ID":40,"Join_Count":1,"District":2,"Address":"Wettsteinpark MA 42, 1020","Longitude":16.36918812,"Latitude":48.220556680000001,"Postal":1020,"City":"Vienna","NumHouseholds":1,"NumPeople":2,"NumParcelsToday_1":1,"TotalParcelWeightKG_1":27.66}},{"type":"Feature","id":100,"geometry":{"type":"Point","coordinates":[16.367414130000043,48.220327140000052]},"properties":{"OBJECTID":100,"SOURCE_ID":7567,"TotalParcelWeightKG":0.47999999999999998,"NumParcelsToday":1,"ZONE_ID":40,"Join_Count":1,"District":9,"Address":"Berggasse 41, 1090","Longitude":16.36741413,"Latitude":48.220327140000002,"Postal":1090,"City":"Vienna","NumHouseholds":1,"NumPeople":2,"NumParcelsToday_1":1,"TotalParcelWeightKG_1":0.47999999999999998}},{"type":"Feature","id":101,"geometry":{"type":"Point","coordinates":[16.366606850000039,48.220840230000078]},"properties":{"OBJECTID":101,"SOURCE_ID":7668,"TotalParcelWeightKG":1.53,"NumParcelsToday":1,"ZONE_ID":40,"Join_Count":1,"District":9,"Address":"Grünentorgasse 30, 1090","Longitude":16.36660685,"Latitude":48.22084023,"Postal":1090,"City":"Vienna","NumHouseholds":1,"NumPeople":2,"NumParcelsToday_1":1,"TotalParcelWeightKG_1":1.53}},{"type":"Feature","id":102,"geometry":{"type":"Point","coordinates":[16.36720629000007,48.220889900000032]},"properties":{"OBJECTID":102,"SOURCE_ID":7669,"TotalParcelWeightKG":0.029999999999999999,"NumParcelsToday":1,"ZONE_ID":40,"Join_Count":1,"District":9,"Address":"Grünentorgasse 34, 1090","Longitude":16.367206289999999,"Latitude":48.220889900000003,"Postal":1090,"City":"Vienna","NumHouseholds":1,"NumPeople":4,"NumParcelsToday_1":1,"TotalParcelWeightKG_1":0.029999999999999999}},{"type":"Feature","id":103,"geometry":{"type":"Point","coordinates":[16.365381670000033,48.222509320000029]},"properties":{"OBJECTID":103,"SOURCE_ID":7686,"TotalParcelWeightKG":0.20999999999999999,"NumParcelsToday":1,"ZONE_ID":40,"Join_Count":1,"District":9,"Address":"Hahngasse 28, 1090","Longitude":16.365381670000001,"Latitude":48.22250932,"Postal":1090,"City":"Vienna","NumHouseholds":1,"NumPeople":7,"NumParcelsToday_1":1,"TotalParcelWeightKG_1":0.20999999999999999}},{"type":"Feature","id":104,"geometry":{"type":"Point","coordinates":[16.366593030000047,48.221591260000025]},"properties":{"OBJECTID":104,"SOURCE_ID":7876,"TotalParcelWeightKG":1.1699999999999999,"NumParcelsToday":2,"ZONE_ID":40,"Join_Count":1,"District":9,"Address":"Mosergasse 11, 1090","Longitude":16.366593030000001,"Latitude":48.221591259999997,"Postal":1090,"City":"Vienna","NumHouseholds":2,"NumPeople":5,"NumParcelsToday_1":2,"TotalParcelWeightKG_1":1.1699999999999999}},{"type":"Feature","id":105,"geometry":{"type":"Point","coordinates":[16.367091330000051,48.221739240000034]},"properties":{"OBJECTID":105,"SOURCE_ID":7877,"TotalParcelWeightKG":39.939999999999998,"NumParcelsToday":2,"ZONE_ID":40,"Join_Count":2,"District":9,"Address":"Mosergasse 15, 1090","Longitude":16.367091330000001,"Latitude":48.221739239999998,"Postal":1090,"City":"Vienna","NumHouseholds":2,"NumPeople":9,"NumParcelsToday_1":2,"TotalParcelWeightKG_1":39.939999999999998}},{"type":"Feature","id":106,"geometry":{"type":"Point","coordinates":[16.367151400000068,48.221374370000035]},"properties":{"OBJECTID":106,"SOURCE_ID":7878,"TotalParcelWeightKG":1,"NumParcelsToday":3,"ZONE_ID":40,"Join_Count":2,"District":9,"Address":"Mosergasse 16, 1090","Longitude":16.367151400000001,"Latitude":48.221374369999999,"Postal":1090,"City":"Vienna","NumHouseholds":2,"NumPeople":6,"NumParcelsToday_1":3,"TotalParcelWeightKG_1":1}},{"type":"Feature","id":107,"geometry":{"type":"Point","coordinates":[16.36614811000004,48.221355570000071]},"properties":{"OBJECTID":107,"SOURCE_ID":7881,"TotalParcelWeightKG":0.5,"NumParcelsToday":1,"ZONE_ID":40,"Join_Count":1,"District":9,"Address":"Mosergasse 8, 1090","Longitude":16.366148110000001,"Latitude":48.22135557,"Postal":1090,"City":"Vienna","NumHouseholds":1,"NumPeople":2,"NumParcelsToday_1":1,"TotalParcelWeightKG_1":0.5}},{"type":"Feature","id":108,"geometry":{"type":"Point","coordinates":[16.36724047000007,48.219257220000031]},"properties":{"OBJECTID":108,"SOURCE_ID":7928,"TotalParcelWeightKG":1.8999999999999999,"NumParcelsToday":1,"ZONE_ID":40,"Join_Count":1,"District":9,"Address":"Oskar-Morgenstern-Platz 1, 1090","Longitude":16.367240469999999,"Latitude":48.219257220000003,"Postal":1090,"City":"Vienna","NumHouseholds":1,"NumPeople":2,"NumParcelsToday_1":1,"TotalParcelWeightKG_1":1.8999999999999999}},{"type":"Feature","id":109,"geometry":{"type":"Point","coordinates":[16.365539070000068,48.222168890000034]},"properties":{"OBJECTID":109,"SOURCE_ID":7968,"TotalParcelWeightKG":0.28000000000000003,"NumParcelsToday":1,"ZONE_ID":40,"Join_Count":1,"District":9,"Address":"Pramergasse 23/1, 1090","Longitude":16.365539070000001,"Latitude":48.222168889999999,"Postal":1090,"City":"Vienna","NumHouseholds":1,"NumPeople":1,"NumParcelsToday_1":1,"TotalParcelWeightKG_1":0.28000000000000003}},{"type":"Feature","id":110,"geometry":{"type":"Point","coordinates":[16.36603929000006,48.221914530000049]},"properties":{"OBJECTID":110,"SOURCE_ID":7969,"TotalParcelWeightKG":1.02,"NumParcelsToday":2,"ZONE_ID":40,"Join_Count":2,"District":9,"Address":"Pramergasse 30/5, 1090","Longitude":16.36603929,"Latitude":48.221914529999999,"Postal":1090,"City":"Vienna","NumHouseholds":2,"NumPeople":7,"NumParcelsToday_1":2,"TotalParcelWeightKG_1":1.02}},{"type":"Feature","id":111,"geometry":{"type":"Point","coordinates":[16.367306040000074,48.220721250000054]},"properties":{"OBJECTID":111,"SOURCE_ID":7996,"TotalParcelWeightKG":1.4299999999999999,"NumParcelsToday":1,"ZONE_ID":40,"Join_Count":1,"District":9,"Address":"Roßauer Lände 11, 1090","Longitude":16.367306039999999,"Latitude":48.220721249999997,"Postal":1090,"City":"Vienna","NumHouseholds":1,"NumPeople":2,"NumParcelsToday_1":1,"TotalParcelWeightKG_1":1.4299999999999999}},{"type":"Feature","id":112,"geometry":{"type":"Point","coordinates":[16.367151400000068,48.221374370000035]},"properties":{"OBJECTID":112,"SOURCE_ID":7997,"TotalParcelWeightKG":6.4000000000000004,"NumParcelsToday":2,"ZONE_ID":40,"Join_Count":2,"District":9,"Address":"Mosergasse 16, 1090","Longitude":16.367151400000001,"Latitude":48.221374369999999,"Postal":1090,"City":"Vienna","NumHouseholds":2,"NumPeople":6,"NumParcelsToday_1":3,"TotalParcelWeightKG_1":1}},{"type":"Feature","id":113,"geometry":{"type":"Point","coordinates":[16.367091330000051,48.221739240000034]},"properties":{"OBJECTID":113,"SOURCE_ID":7998,"TotalParcelWeightKG":1.75,"NumParcelsToday":1,"ZONE_ID":40,"Join_Count":2,"District":9,"Address":"Mosergasse 15, 1090","Longitude":16.367091330000001,"Latitude":48.221739239999998,"Postal":1090,"City":"Vienna","NumHouseholds":2,"NumPeople":9,"NumParcelsToday_1":2,"TotalParcelWeightKG_1":39.939999999999998}},{"type":"Feature","id":114,"geometry":{"type":"Point","coordinates":[16.367005190000043,48.221948530000077]},"properties":{"OBJECTID":114,"SOURCE_ID":7999,"TotalParcelWeightKG":1.23,"NumParcelsToday":1,"ZONE_ID":40,"Join_Count":1,"District":9,"Address":"Roßauer Lände 21/1, 1090","Longitude":16.36700519,"Latitude":48.221948529999999,"Postal":1090,"City":"Vienna","NumHouseholds":1,"NumPeople":1,"NumParcelsToday_1":1,"TotalParcelWeightKG_1":1.23}},{"type":"Feature","id":115,"geometry":{"type":"Point","coordinates":[16.366392040000051,48.221931160000054]},"properties":{"OBJECTID":115,"SOURCE_ID":8000,"TotalParcelWeightKG":2.4900000000000002,"NumParcelsToday":1,"ZONE_ID":40,"Join_Count":1,"District":9,"Address":"Roßauer Lände 21/4, 1090","Longitude":16.366392040000001,"Latitude":48.221931159999997,"Postal":1090,"City":"Vienna","NumHouseholds":1,"NumPeople":4,"NumParcelsToday_1":1,"TotalParcelWeightKG_1":2.4900000000000002}},{"type":"Feature","id":116,"geometry":{"type":"Point","coordinates":[16.36603929000006,48.221914530000049]},"properties":{"OBJECTID":116,"SOURCE_ID":8001,"TotalParcelWeightKG":0.20999999999999999,"NumParcelsToday":1,"ZONE_ID":40,"Join_Count":2,"District":9,"Address":"Pramergasse 30/5, 1090","Longitude":16.36603929,"Latitude":48.221914529999999,"Postal":1090,"City":"Vienna","NumHouseholds":2,"NumPeople":7,"NumParcelsToday_1":2,"TotalParcelWeightKG_1":1.02}},{"type":"Feature","id":117,"geometry":{"type":"Point","coordinates":[16.366109850000043,48.223817280000048]},"properties":{"OBJECTID":117,"SOURCE_ID":8009,"TotalParcelWeightKG":1.5900000000000001,"NumParcelsToday":1,"ZONE_ID":40,"Join_Count":1,"District":9,"Address":"Rögergasse 14, 1090","Longitude":16.366109850000001,"Latitude":48.223817279999999,"Postal":1090,"City":"Vienna","NumHouseholds":1,"NumPeople":5,"NumParcelsToday_1":1,"TotalParcelWeightKG_1":1.5900000000000001}},{"type":"Feature","id":118,"geometry":{"type":"Point","coordinates":[16.366090430000042,48.222370020000028]},"properties":{"OBJECTID":118,"SOURCE_ID":8013,"TotalParcelWeightKG":0.83999999999999997,"NumParcelsToday":1,"ZONE_ID":40,"Join_Count":1,"District":9,"Address":"Rögergasse 1A, 1090","Longitude":16.36609043,"Latitude":48.22237002,"Postal":1090,"City":"Vienna","NumHouseholds":1,"NumPeople":1,"NumParcelsToday_1":1,"TotalParcelWeightKG_1":0.83999999999999997}},{"type":"Feature","id":119,"geometry":{"type":"Point","coordinates":[16.366073280000023,48.222493770000028]},"properties":{"OBJECTID":119,"SOURCE_ID":8014,"TotalParcelWeightKG":0.44999999999999996,"NumParcelsToday":2,"ZONE_ID":40,"Join_Count":1,"District":9,"Address":"Rögergasse 1B, 1090","Longitude":16.366073279999998,"Latitude":48.22249377,"Postal":1090,"City":"Vienna","NumHouseholds":2,"NumPeople":4,"NumParcelsToday_1":2,"TotalParcelWeightKG_1":0.44999999999999996}},{"type":"Feature","id":120,"geometry":{"type":"Point","coordinates":[16.366087600000071,48.222826330000032]},"properties":{"OBJECTID":120,"SOURCE_ID":8018,"TotalParcelWeightKG":1.55,"NumParcelsToday":1,"ZONE_ID":40,"Join_Count":1,"District":9,"Address":"Rögergasse 5/1, 1090","Longitude":16.3660876,"Latitude":48.222826329999997,"Postal":1090,"City":"Vienna","NumHouseholds":1,"NumPeople":1,"NumParcelsToday_1":1,"TotalParcelWeightKG_1":1.55}},{"type":"Feature","id":121,"geometry":{"type":"Point","coordinates":[16.366032080000025,48.223155040000051]},"properties":{"OBJECTID":121,"SOURCE_ID":8019,"TotalParcelWeightKG":0.80000000000000004,"NumParcelsToday":1,"ZONE_ID":40,"Join_Count":2,"District":9,"Address":"Rögergasse 5/3, 1090","Longitude":16.36603208,"Latitude":48.223155040000002,"Postal":1090,"City":"Vienna","NumHouseholds":1,"NumPeople":1,"NumParcelsToday_1":1,"TotalParcelWeightKG_1":0.80000000000000004}},{"type":"Feature","id":122,"geometry":{"type":"Point","coordinates":[16.366336800000056,48.223193900000069]},"properties":{"OBJECTID":122,"SOURCE_ID":8020,"TotalParcelWeightKG":1.1100000000000001,"NumParcelsToday":1,"ZONE_ID":40,"Join_Count":1,"District":9,"Address":"Rögergasse 8, 1090","Longitude":16.366336799999999,"Latitude":48.223193899999998,"Postal":1090,"City":"Vienna","NumHouseholds":1,"NumPeople":1,"NumParcelsToday_1":1,"TotalParcelWeightKG_1":1.1100000000000001}},{"type":"Feature","id":123,"geometry":{"type":"Point","coordinates":[16.367642480000029,48.218180510000082]},"properties":{"OBJECTID":123,"SOURCE_ID":8039,"TotalParcelWeightKG":0.30000000000000004,"NumParcelsToday":2,"ZONE_ID":40,"Join_Count":1,"District":9,"Address":"Schlickplatz 6 ROSSAUER KASERNE, 1090","Longitude":16.367642480000001,"Latitude":48.218180510000003,"Postal":1090,"City":"Vienna","NumHouseholds":2,"NumPeople":7,"NumParcelsToday_1":2,"TotalParcelWeightKG_1":0.30000000000000004}},{"type":"Feature","id":124,"geometry":{"type":"Point","coordinates":[16.366340280000031,48.223397870000042]},"properties":{"OBJECTID":124,"SOURCE_ID":8082,"TotalParcelWeightKG":0.40000000000000002,"NumParcelsToday":3,"ZONE_ID":40,"Join_Count":1,"District":9,"Address":"Seegasse 25, 1090","Longitude":16.366340279999999,"Latitude":48.223397869999999,"Postal":1090,"City":"Vienna","NumHouseholds":3,"NumPeople":9,"NumParcelsToday_1":3,"TotalParcelWeightKG_1":0.40000000000000002}},{"type":"Feature","id":125,"geometry":{"type":"Point","coordinates":[16.366032080000025,48.223155040000051]},"properties":{"OBJECTID":125,"SOURCE_ID":8083,"TotalParcelWeightKG":0.22,"NumParcelsToday":1,"ZONE_ID":40,"Join_Count":2,"District":9,"Address":"Rögergasse 5/3, 1090","Longitude":16.36603208,"Latitude":48.223155040000002,"Postal":1090,"City":"Vienna","NumHouseholds":1,"NumPeople":1,"NumParcelsToday_1":1,"TotalParcelWeightKG_1":0.80000000000000004}},{"type":"Feature","id":126,"geometry":{"type":"Point","coordinates":[16.366554140000062,48.223413460000074]},"properties":{"OBJECTID":126,"SOURCE_ID":8085,"TotalParcelWeightKG":1,"NumParcelsToday":2,"ZONE_ID":40,"Join_Count":1,"District":9,"Address":"Seegasse 27, 1090","Longitude":16.366554140000002,"Latitude":48.223413460000003,"Postal":1090,"City":"Vienna","NumHouseholds":2,"NumPeople":3,"NumParcelsToday_1":2,"TotalParcelWeightKG_1":1}},{"type":"Feature","id":127,"geometry":{"type":"Point","coordinates":[16.368784130000051,48.225634250000041]},"properties":{"OBJECTID":127,"SOURCE_ID":24502,"TotalParcelWeightKG":0.33000000000000002,"NumParcelsToday":1,"ZONE_ID":40,"Join_Count":2,"District":20,"Address":"Brigittenauer Lände 14, 1200","Longitude":16.368784130000002,"Latitude":48.225634249999999,"Postal":1200,"City":"Vienna","NumHouseholds":1,"NumPeople":2,"NumParcelsToday_1":1,"TotalParcelWeightKG_1":0.33000000000000002}},{"type":"Feature","id":128,"geometry":{"type":"Point","coordinates":[16.369091350000076,48.226822240000047]},"properties":{"OBJECTID":128,"SOURCE_ID":24832,"TotalParcelWeightKG":0.48999999999999999,"NumParcelsToday":1,"ZONE_ID":40,"Join_Count":1,"District":20,"Address":"Gaußplatz 9/2, 1200","Longitude":16.369091350000001,"Latitude":48.226822239999997,"Postal":1200,"City":"Vienna","NumHouseholds":1,"NumPeople":1,"NumParcelsToday_1":1,"TotalParcelWeightKG_1":0.48999999999999999}},{"type":"Feature","id":129,"geometry":{"type":"Point","coordinates":[16.369614560000059,48.227094130000069]},"properties":{"OBJECTID":129,"SOURCE_ID":25163,"TotalParcelWeightKG":0.23000000000000001,"NumParcelsToday":1,"ZONE_ID":40,"Join_Count":1,"District":20,"Address":"Klosterneuburger Straße 4, 1200","Longitude":16.369614559999999,"Latitude":48.227094129999998,"Postal":1200,"City":"Vienna","NumHouseholds":1,"NumPeople":1,"NumParcelsToday_1":1,"TotalParcelWeightKG_1":0.23000000000000001}},{"type":"Feature","id":130,"geometry":{"type":"Point","coordinates":[16.368784130000051,48.225634250000041]},"properties":{"OBJECTID":130,"SOURCE_ID":25496,"TotalParcelWeightKG":0.82999999999999996,"NumParcelsToday":1,"ZONE_ID":40,"Join_Count":2,"District":20,"Address":"Brigittenauer Lände 14, 1200","Longitude":16.368784130000002,"Latitude":48.225634249999999,"Postal":1200,"City":"Vienna","NumHouseholds":1,"NumPeople":2,"NumParcelsToday_1":1,"TotalParcelWeightKG_1":0.33000000000000002}},{"type":"Feature","id":131,"geometry":{"type":"Point","coordinates":[16.36904246000006,48.225723830000049]},"properties":{"OBJECTID":131,"SOURCE_ID":25497,"TotalParcelWeightKG":3.7800000000000002,"NumParcelsToday":2,"ZONE_ID":40,"Join_Count":1,"District":20,"Address":"Perinetgasse 3, 1200","Longitude":16.369042459999999,"Latitude":48.22572383,"Postal":1200,"City":"Vienna","NumHouseholds":2,"NumPeople":6,"NumParcelsToday_1":2,"TotalParcelWeightKG_1":3.7800000000000002}},{"type":"Feature","id":132,"geometry":{"type":"Point","coordinates":[16.368861030000062,48.226968360000058]},"properties":{"OBJECTID":132,"SOURCE_ID":25710,"TotalParcelWeightKG":4.6200000000000001,"NumParcelsToday":1,"ZONE_ID":40,"Join_Count":1,"District":20,"Address":"Treustraße 2/1, 1200","Longitude":16.368861030000001,"Latitude":48.226968360000001,"Postal":1200,"City":"Vienna","NumHouseholds":1,"NumPeople":4,"NumParcelsToday_1":1,"TotalParcelWeightKG_1":4.6200000000000001}}]
}