{
  "type" : "FeatureCollection",
  "features" : [{"type":"Feature","id":1,"geometry":{"type":"Point","coordinates":[16.338961700000027,48.207037860000071]},"properties":{"OBJECTID":1,"SOURCE_ID":6464,"TotalParcelWeightKG":0.45000000000000001,"NumParcelsToday":1,"ZONE_ID":32,"Join_Count":1,"District":7,"Address":"Bernardgasse 37, 1070","Longitude":16.338961699999999,"Latitude":48.20703786,"Postal":1070,"City":"Vienna","NumHouseholds":1,"NumPeople":4,"NumParcelsToday_1":1,"TotalParcelWeightKG_1":0.45000000000000001}},{"type":"Feature","id":2,"geometry":{"type":"Point","coordinates":[16.338971670000035,48.207304860000079]},"properties":{"OBJECTID":2,"SOURCE_ID":6465,"TotalParcelWeightKG":0.72999999999999998,"NumParcelsToday":1,"ZONE_ID":32,"Join_Count":1,"District":7,"Address":"Bernardgasse 38/1, 1070","Longitude":16.338971669999999,"Latitude":48.207304860000001,"Postal":1070,"City":"Vienna","NumHouseholds":1,"NumPeople":3,"NumParcelsToday_1":1,"TotalParcelWeightKG_1":0.72999999999999998}},{"type":"Feature","id":3,"geometry":{"type":"Point","coordinates":[16.339026960000069,48.207591870000044]},"properties":{"OBJECTID":3,"SOURCE_ID":6466,"TotalParcelWeightKG":9.9100000000000001,"NumParcelsToday":1,"ZONE_ID":32,"Join_Count":1,"District":7,"Address":"Bernardgasse 38/2, 1070","Longitude":16.339026960000002,"Latitude":48.207591870000002,"Postal":1070,"City":"Vienna","NumHouseholds":1,"NumPeople":2,"NumParcelsToday_1":1,"TotalParcelWeightKG_1":9.9100000000000001}},{"type":"Feature","id":4,"geometry":{"type":"Point","coordinates":[16.339593930000035,48.207381200000043]},"properties":{"OBJECTID":4,"SOURCE_ID":6556,"TotalParcelWeightKG":0.69999999999999996,"NumParcelsToday":1,"ZONE_ID":32,"Join_Count":1,"District":7,"Address":"Kaiserstraße 100, 1070","Longitude":16.339593929999999,"Latitude":48.2073812,"Postal":1070,"City":"Vienna","NumHouseholds":1,"NumPeople":2,"NumParcelsToday_1":1,"TotalParcelWeightKG_1":0.69999999999999996}},{"type":"Feature","id":5,"geometry":{"type":"Point","coordinates":[16.339040250000039,48.206671830000062]},"properties":{"OBJECTID":5,"SOURCE_ID":6558,"TotalParcelWeightKG":0.82999999999999996,"NumParcelsToday":1,"ZONE_ID":32,"Join_Count":1,"District":7,"Address":"Kaiserstraße 105/2, 1070","Longitude":16.33904025,"Latitude":48.206671829999998,"Postal":1070,"City":"Vienna","NumHouseholds":1,"NumPeople":3,"NumParcelsToday_1":1,"TotalParcelWeightKG_1":0.82999999999999996}},{"type":"Feature","id":6,"geometry":{"type":"Point","coordinates":[16.339253520000057,48.207062760000042]},"properties":{"OBJECTID":6,"SOURCE_ID":6559,"TotalParcelWeightKG":0.059999999999999998,"NumParcelsToday":1,"ZONE_ID":32,"Join_Count":1,"District":7,"Address":"Kaiserstraße 109, 1070","Longitude":16.33925352,"Latitude":48.207062759999999,"Postal":1070,"City":"Vienna","NumHouseholds":1,"NumPeople":2,"NumParcelsToday_1":1,"TotalParcelWeightKG_1":0.059999999999999998}},{"type":"Feature","id":7,"geometry":{"type":"Point","coordinates":[16.339797410000074,48.207162510000046]},"properties":{"OBJECTID":7,"SOURCE_ID":6592,"TotalParcelWeightKG":0.44,"NumParcelsToday":1,"ZONE_ID":32,"Join_Count":1,"District":7,"Address":"Kaiserstraße 98, 1070","Longitude":16.339797409999999,"Latitude":48.207162510000003,"Postal":1070,"City":"Vienna","NumHouseholds":1,"NumPeople":1,"NumParcelsToday_1":1,"TotalParcelWeightKG_1":0.44}},{"type":"Feature","id":8,"geometry":{"type":"Point","coordinates":[16.337802620000048,48.202868910000063]},"properties":{"OBJECTID":8,"SOURCE_ID":6603,"TotalParcelWeightKG":0.02,"NumParcelsToday":1,"ZONE_ID":32,"Join_Count":1,"District":7,"Address":"Kandlgasse 48, 1070","Longitude":16.337802620000001,"Latitude":48.202868909999999,"Postal":1070,"City":"Vienna","NumHouseholds":1,"NumPeople":1,"NumParcelsToday_1":1,"TotalParcelWeightKG_1":0.02}},{"type":"Feature","id":9,"geometry":{"type":"Point","coordinates":[16.337808110000026,48.205209000000082]},"properties":{"OBJECTID":9,"SOURCE_ID":6644,"TotalParcelWeightKG":0.26000000000000001,"NumParcelsToday":1,"ZONE_ID":32,"Join_Count":1,"District":7,"Address":"Lerchenfelder Gürtel 10 Hofgebäude, 1070","Longitude":16.337808110000001,"Latitude":48.205209000000004,"Postal":1070,"City":"Vienna","NumHouseholds":1,"NumPeople":4,"NumParcelsToday_1":1,"TotalParcelWeightKG_1":0.26000000000000001}},{"type":"Feature","id":10,"geometry":{"type":"Point","coordinates":[16.337563910000028,48.205343930000026]},"properties":{"OBJECTID":10,"SOURCE_ID":6645,"TotalParcelWeightKG":0.38,"NumParcelsToday":1,"ZONE_ID":32,"Join_Count":1,"District":7,"Address":"Lerchenfelder Gürtel 12, 1070","Longitude":16.33756391,"Latitude":48.205343929999998,"Postal":1070,"City":"Vienna","NumHouseholds":1,"NumPeople":1,"NumParcelsToday_1":1,"TotalParcelWeightKG_1":0.38}},{"type":"Feature","id":11,"geometry":{"type":"Point","coordinates":[16.337529210000071,48.205689360000065]},"properties":{"OBJECTID":11,"SOURCE_ID":6646,"TotalParcelWeightKG":0.5,"NumParcelsToday":1,"ZONE_ID":32,"Join_Count":1,"District":7,"Address":"Lerchenfelder Gürtel 16, 1070","Longitude":16.33752921,"Latitude":48.205689360000001,"Postal":1070,"City":"Vienna","NumHouseholds":1,"NumPeople":6,"NumParcelsToday_1":1,"TotalParcelWeightKG_1":0.5}},{"type":"Feature","id":12,"geometry":{"type":"Point","coordinates":[16.338195900000073,48.207090660000063]},"properties":{"OBJECTID":12,"SOURCE_ID":6647,"TotalParcelWeightKG":1.22,"NumParcelsToday":1,"ZONE_ID":32,"Join_Count":1,"District":7,"Address":"Lerchenfelder Gürtel 30, 1070","Longitude":16.338195899999999,"Latitude":48.207090659999999,"Postal":1070,"City":"Vienna","NumHouseholds":1,"NumPeople":1,"NumParcelsToday_1":1,"TotalParcelWeightKG_1":1.22}},{"type":"Feature","id":13,"geometry":{"type":"Point","coordinates":[16.338647450000053,48.207782140000063]},"properties":{"OBJECTID":13,"SOURCE_ID":6648,"TotalParcelWeightKG":0.14000000000000001,"NumParcelsToday":1,"ZONE_ID":32,"Join_Count":1,"District":7,"Address":"Lerchenfelder Gürtel 36, 1070","Longitude":16.33864745,"Latitude":48.207782139999999,"Postal":1070,"City":"Vienna","NumHouseholds":1,"NumPeople":3,"NumParcelsToday_1":1,"TotalParcelWeightKG_1":0.14000000000000001}},{"type":"Feature","id":14,"geometry":{"type":"Point","coordinates":[16.337629940000056,48.20464480000004]},"properties":{"OBJECTID":14,"SOURCE_ID":6649,"TotalParcelWeightKG":0.080000000000000002,"NumParcelsToday":1,"ZONE_ID":32,"Join_Count":1,"District":7,"Address":"Lerchenfelder Gürtel 4, 1070","Longitude":16.337629939999999,"Latitude":48.204644799999997,"Postal":1070,"City":"Vienna","NumHouseholds":1,"NumPeople":2,"NumParcelsToday_1":1,"TotalParcelWeightKG_1":0.080000000000000002}},{"type":"Feature","id":15,"geometry":{"type":"Point","coordinates":[16.337596590000032,48.204990140000064]},"properties":{"OBJECTID":15,"SOURCE_ID":6650,"TotalParcelWeightKG":0.46999999999999997,"NumParcelsToday":2,"ZONE_ID":32,"Join_Count":1,"District":7,"Address":"Lerchenfelder Gürtel 8, 1070","Longitude":16.33759659,"Latitude":48.20499014,"Postal":1070,"City":"Vienna","NumHouseholds":2,"NumPeople":4,"NumParcelsToday_1":2,"TotalParcelWeightKG_1":0.46999999999999997}},{"type":"Feature","id":16,"geometry":{"type":"Point","coordinates":[16.340140760000054,48.208108550000077]},"properties":{"OBJECTID":16,"SOURCE_ID":6654,"TotalParcelWeightKG":0.66000000000000003,"NumParcelsToday":1,"ZONE_ID":32,"Join_Count":1,"District":7,"Address":"Lerchenfelder Straße 139, 1070","Longitude":16.340140760000001,"Latitude":48.208108549999999,"Postal":1070,"City":"Vienna","NumHouseholds":1,"NumPeople":2,"NumParcelsToday_1":1,"TotalParcelWeightKG_1":0.66000000000000003}},{"type":"Feature","id":17,"geometry":{"type":"Point","coordinates":[16.338076790000059,48.206226960000038]},"properties":{"OBJECTID":17,"SOURCE_ID":6786,"TotalParcelWeightKG":1.8100000000000001,"NumParcelsToday":2,"ZONE_ID":32,"Join_Count":1,"District":7,"Address":"Neustiftgasse 120, 1070","Longitude":16.338076789999999,"Latitude":48.206226960000002,"Postal":1070,"City":"Vienna","NumHouseholds":2,"NumPeople":4,"NumParcelsToday_1":2,"TotalParcelWeightKG_1":1.8100000000000001}},{"type":"Feature","id":18,"geometry":{"type":"Point","coordinates":[16.33783045000007,48.206002220000073]},"properties":{"OBJECTID":18,"SOURCE_ID":6791,"TotalParcelWeightKG":19.559999999999999,"NumParcelsToday":2,"ZONE_ID":32,"Join_Count":1,"District":7,"Address":"Neustiftgasse 149, 1070","Longitude":16.337830449999998,"Latitude":48.206002220000002,"Postal":1070,"City":"Vienna","NumHouseholds":2,"NumPeople":3,"NumParcelsToday_1":2,"TotalParcelWeightKG_1":19.559999999999999}},{"type":"Feature","id":19,"geometry":{"type":"Point","coordinates":[16.337197250000031,48.203348970000036]},"properties":{"OBJECTID":19,"SOURCE_ID":6948,"TotalParcelWeightKG":0.19,"NumParcelsToday":1,"ZONE_ID":32,"Join_Count":1,"District":7,"Address":"U-Bahn Station Burggasse STATION, 1070","Longitude":16.337197249999999,"Latitude":48.20334897,"Postal":1070,"City":"Vienna","NumHouseholds":1,"NumPeople":2,"NumParcelsToday_1":1,"TotalParcelWeightKG_1":0.19}},{"type":"Feature","id":20,"geometry":{"type":"Point","coordinates":[16.338643750000074,48.206392060000042]},"properties":{"OBJECTID":20,"SOURCE_ID":6987,"TotalParcelWeightKG":0.81000000000000005,"NumParcelsToday":1,"ZONE_ID":32,"Join_Count":1,"District":7,"Address":"Wimbergergasse 38, 1070","Longitude":16.338643749999999,"Latitude":48.206392059999999,"Postal":1070,"City":"Vienna","NumHouseholds":1,"NumPeople":2,"NumParcelsToday_1":1,"TotalParcelWeightKG_1":0.81000000000000005}},{"type":"Feature","id":21,"geometry":{"type":"Point","coordinates":[16.338347230000068,48.206438030000072]},"properties":{"OBJECTID":21,"SOURCE_ID":6988,"TotalParcelWeightKG":0.73999999999999999,"NumParcelsToday":2,"ZONE_ID":32,"Join_Count":1,"District":7,"Address":"Wimbergergasse 39, 1070","Longitude":16.33834723,"Latitude":48.206438030000001,"Postal":1070,"City":"Vienna","NumHouseholds":2,"NumPeople":6,"NumParcelsToday_1":2,"TotalParcelWeightKG_1":0.73999999999999999}},{"type":"Feature","id":22,"geometry":{"type":"Point","coordinates":[16.338425000000029,48.206595040000082]},"properties":{"OBJECTID":22,"SOURCE_ID":6989,"TotalParcelWeightKG":3.6000000000000001,"NumParcelsToday":1,"ZONE_ID":32,"Join_Count":1,"District":7,"Address":"Wimbergergasse 41, 1070","Longitude":16.338425000000001,"Latitude":48.206595040000003,"Postal":1070,"City":"Vienna","NumHouseholds":1,"NumPeople":1,"NumParcelsToday_1":1,"TotalParcelWeightKG_1":3.6000000000000001}},{"type":"Feature","id":23,"geometry":{"type":"Point","coordinates":[16.338801180000075,48.206710600000065]},"properties":{"OBJECTID":23,"SOURCE_ID":6990,"TotalParcelWeightKG":0.96999999999999997,"NumParcelsToday":1,"ZONE_ID":32,"Join_Count":1,"District":7,"Address":"Wimbergergasse 42, 1070","Longitude":16.338801180000001,"Latitude":48.206710600000001,"Postal":1070,"City":"Vienna","NumHouseholds":1,"NumPeople":2,"NumParcelsToday_1":1,"TotalParcelWeightKG_1":0.96999999999999997}},{"type":"Feature","id":24,"geometry":{"type":"Point","coordinates":[16.339564270000039,48.20847684000006]},"properties":{"OBJECTID":24,"SOURCE_ID":7095,"TotalParcelWeightKG":0.37,"NumParcelsToday":1,"ZONE_ID":32,"Join_Count":2,"District":8,"Address":"Blindengasse 2, 1080","Longitude":16.33956427,"Latitude":48.208476840000003,"Postal":1080,"City":"Vienna","NumHouseholds":1,"NumPeople":3,"NumParcelsToday_1":1,"TotalParcelWeightKG_1":0.37}},{"type":"Feature","id":25,"geometry":{"type":"Point","coordinates":[16.339284590000034,48.209060770000065]},"properties":{"OBJECTID":25,"SOURCE_ID":7101,"TotalParcelWeightKG":5.3799999999999999,"NumParcelsToday":1,"ZONE_ID":32,"Join_Count":1,"District":8,"Address":"Blindengasse 3, 1080","Longitude":16.339284589999998,"Latitude":48.209060770000001,"Postal":1080,"City":"Vienna","NumHouseholds":1,"NumPeople":2,"NumParcelsToday_1":1,"TotalParcelWeightKG_1":5.3799999999999999}},{"type":"Feature","id":26,"geometry":{"type":"Point","coordinates":[16.339709210000024,48.208925590000035]},"properties":{"OBJECTID":26,"SOURCE_ID":7112,"TotalParcelWeightKG":0.20000000000000001,"NumParcelsToday":1,"ZONE_ID":32,"Join_Count":1,"District":8,"Address":"Blindengasse 6, 1080","Longitude":16.339709209999999,"Latitude":48.20892559,"Postal":1080,"City":"Vienna","NumHouseholds":1,"NumPeople":2,"NumParcelsToday_1":1,"TotalParcelWeightKG_1":0.20000000000000001}},{"type":"Feature","id":27,"geometry":{"type":"Point","coordinates":[16.340633340000068,48.208248910000066]},"properties":{"OBJECTID":27,"SOURCE_ID":7339,"TotalParcelWeightKG":0.33000000000000002,"NumParcelsToday":1,"ZONE_ID":32,"Join_Count":1,"District":8,"Address":"Lerchenfelder Straße 150-154/1, 1080","Longitude":16.34063334,"Latitude":48.208248910000002,"Postal":1080,"City":"Vienna","NumHouseholds":1,"NumPeople":4,"NumParcelsToday_1":1,"TotalParcelWeightKG_1":0.33000000000000002}},{"type":"Feature","id":28,"geometry":{"type":"Point","coordinates":[16.340539720000038,48.208470420000026]},"properties":{"OBJECTID":28,"SOURCE_ID":7340,"TotalParcelWeightKG":30.370000000000001,"NumParcelsToday":1,"ZONE_ID":32,"Join_Count":1,"District":8,"Address":"Lerchenfelder Straße 150-154/2, 1080","Longitude":16.340539719999999,"Latitude":48.208470419999998,"Postal":1080,"City":"Vienna","NumHouseholds":1,"NumPeople":5,"NumParcelsToday_1":1,"TotalParcelWeightKG_1":30.370000000000001}},{"type":"Feature","id":29,"geometry":{"type":"Point","coordinates":[16.339992130000041,48.208596340000042]},"properties":{"OBJECTID":29,"SOURCE_ID":7341,"TotalParcelWeightKG":0.33000000000000002,"NumParcelsToday":1,"ZONE_ID":32,"Join_Count":1,"District":8,"Address":"Lerchenfelder Straße 158/5, 1080","Longitude":16.339992129999999,"Latitude":48.20859634,"Postal":1080,"City":"Vienna","NumHouseholds":1,"NumPeople":3,"NumParcelsToday_1":1,"TotalParcelWeightKG_1":0.33000000000000002}},{"type":"Feature","id":30,"geometry":{"type":"Point","coordinates":[16.339564270000039,48.20847684000006]},"properties":{"OBJECTID":30,"SOURCE_ID":7342,"TotalParcelWeightKG":0.97999999999999998,"NumParcelsToday":1,"ZONE_ID":32,"Join_Count":2,"District":8,"Address":"Blindengasse 2, 1080","Longitude":16.33956427,"Latitude":48.208476840000003,"Postal":1080,"City":"Vienna","NumHouseholds":1,"NumPeople":3,"NumParcelsToday_1":1,"TotalParcelWeightKG_1":0.37}},{"type":"Feature","id":31,"geometry":{"type":"Point","coordinates":[16.338616150000064,48.208740090000049]},"properties":{"OBJECTID":31,"SOURCE_ID":7475,"TotalParcelWeightKG":0.60999999999999999,"NumParcelsToday":1,"ZONE_ID":32,"Join_Count":1,"District":8,"Address":"U-Bahn-Bogen 19-21(BETRIEB), 1080","Longitude":16.33861615,"Latitude":48.208740089999999,"Postal":1080,"City":"Vienna","NumHouseholds":1,"NumPeople":2,"NumParcelsToday_1":1,"TotalParcelWeightKG_1":0.60999999999999999}},{"type":"Feature","id":32,"geometry":{"type":"Point","coordinates":[16.338820680000026,48.209195230000034]},"properties":{"OBJECTID":32,"SOURCE_ID":7476,"TotalParcelWeightKG":0.85999999999999999,"NumParcelsToday":3,"ZONE_ID":32,"Join_Count":1,"District":8,"Address":"U-Bahn-Bogen 25(BETRIEB), 1080","Longitude":16.338820680000001,"Latitude":48.209195229999999,"Postal":1080,"City":"Vienna","NumHouseholds":2,"NumPeople":7,"NumParcelsToday_1":3,"TotalParcelWeightKG_1":0.85999999999999999}},{"type":"Feature","id":33,"geometry":{"type":"Point","coordinates":[16.337848760000043,48.195929060000026]},"properties":{"OBJECTID":33,"SOURCE_ID":18412,"TotalParcelWeightKG":0.79000000000000004,"NumParcelsToday":1,"ZONE_ID":32,"Join_Count":2,"District":15,"Address":"Europaplatz 1, 1150","Longitude":16.33784876,"Latitude":48.195929059999997,"Postal":1150,"City":"Vienna","NumHouseholds":1,"NumPeople":3,"NumParcelsToday_1":1,"TotalParcelWeightKG_1":0.79000000000000004}},{"type":"Feature","id":34,"geometry":{"type":"Point","coordinates":[16.336416130000032,48.197989670000027]},"properties":{"OBJECTID":34,"SOURCE_ID":18413,"TotalParcelWeightKG":1.51,"NumParcelsToday":1,"ZONE_ID":32,"Join_Count":2,"District":15,"Address":"Felberstraße 10, 1150","Longitude":16.33641613,"Latitude":48.197989669999998,"Postal":1150,"City":"Vienna","NumHouseholds":1,"NumPeople":2,"NumParcelsToday_1":1,"TotalParcelWeightKG_1":1.51}},{"type":"Feature","id":35,"geometry":{"type":"Point","coordinates":[16.335764530000063,48.197812770000041]},"properties":{"OBJECTID":35,"SOURCE_ID":18421,"TotalParcelWeightKG":0.78000000000000003,"NumParcelsToday":1,"ZONE_ID":32,"Join_Count":1,"District":15,"Address":"Felberstraße 12, 1150","Longitude":16.335764529999999,"Latitude":48.197812769999999,"Postal":1150,"City":"Vienna","NumHouseholds":1,"NumPeople":3,"NumParcelsToday_1":1,"TotalParcelWeightKG_1":0.78000000000000003}},{"type":"Feature","id":36,"geometry":{"type":"Point","coordinates":[16.337903890000064,48.198273030000053]},"properties":{"OBJECTID":36,"SOURCE_ID":18426,"TotalParcelWeightKG":0.40000000000000002,"NumParcelsToday":1,"ZONE_ID":32,"Join_Count":2,"District":15,"Address":"Felberstraße 2, 1150","Longitude":16.33790389,"Latitude":48.198273030000003,"Postal":1150,"City":"Vienna","NumHouseholds":1,"NumPeople":5,"NumParcelsToday_1":1,"TotalParcelWeightKG_1":0.40000000000000002}},{"type":"Feature","id":37,"geometry":{"type":"Point","coordinates":[16.336691620000067,48.198068900000067]},"properties":{"OBJECTID":37,"SOURCE_ID":18430,"TotalParcelWeightKG":0.20999999999999999,"NumParcelsToday":1,"ZONE_ID":32,"Join_Count":2,"District":15,"Address":"Felberstraße 8, 1150","Longitude":16.33669162,"Latitude":48.198068900000003,"Postal":1150,"City":"Vienna","NumHouseholds":1,"NumPeople":4,"NumParcelsToday_1":1,"TotalParcelWeightKG_1":0.20999999999999999}},{"type":"Feature","id":38,"geometry":{"type":"Point","coordinates":[16.336372660000052,48.195393240000044]},"properties":{"OBJECTID":38,"SOURCE_ID":18463,"TotalParcelWeightKG":0.10000000000000001,"NumParcelsToday":1,"ZONE_ID":32,"Join_Count":1,"District":15,"Address":"Fuchsgasse 6, 1150","Longitude":16.336372659999999,"Latitude":48.195393240000001,"Postal":1150,"City":"Vienna","NumHouseholds":1,"NumPeople":2,"NumParcelsToday_1":1,"TotalParcelWeightKG_1":0.10000000000000001}},{"type":"Feature","id":39,"geometry":{"type":"Point","coordinates":[16.335839190000058,48.195599190000053]},"properties":{"OBJECTID":39,"SOURCE_ID":18464,"TotalParcelWeightKG":4.3200000000000003,"NumParcelsToday":1,"ZONE_ID":32,"Join_Count":1,"District":15,"Address":"Fuchsgasse 7, 1150","Longitude":16.335839190000002,"Latitude":48.195599190000003,"Postal":1150,"City":"Vienna","NumHouseholds":1,"NumPeople":3,"NumParcelsToday_1":1,"TotalParcelWeightKG_1":4.3200000000000003}},{"type":"Feature","id":40,"geometry":{"type":"Point","coordinates":[16.336328990000027,48.204053060000035]},"properties":{"OBJECTID":40,"SOURCE_ID":18475,"TotalParcelWeightKG":0.35999999999999999,"NumParcelsToday":1,"ZONE_ID":32,"Join_Count":1,"District":15,"Address":"Gablenzgasse 1C, 1150","Longitude":16.336328989999998,"Latitude":48.20405306,"Postal":1150,"City":"Vienna","NumHouseholds":1,"NumPeople":4,"NumParcelsToday_1":1,"TotalParcelWeightKG_1":0.35999999999999999}},{"type":"Feature","id":41,"geometry":{"type":"Point","coordinates":[16.335158690000071,48.203905740000039]},"properties":{"OBJECTID":41,"SOURCE_ID":18485,"TotalParcelWeightKG":0.98999999999999999,"NumParcelsToday":1,"ZONE_ID":32,"Join_Count":1,"District":15,"Address":"Gablenzgasse 7/5, 1150","Longitude":16.33515869,"Latitude":48.203905740000003,"Postal":1150,"City":"Vienna","NumHouseholds":1,"NumPeople":3,"NumParcelsToday_1":1,"TotalParcelWeightKG_1":0.98999999999999999}},{"type":"Feature","id":42,"geometry":{"type":"Point","coordinates":[16.337016560000052,48.195428040000081]},"properties":{"OBJECTID":42,"SOURCE_ID":18508,"TotalParcelWeightKG":0.78000000000000003,"NumParcelsToday":1,"ZONE_ID":32,"Join_Count":1,"District":15,"Address":"Gerstnerstraße 3, 1150","Longitude":16.337016559999999,"Latitude":48.195428040000003,"Postal":1150,"City":"Vienna","NumHouseholds":1,"NumPeople":3,"NumParcelsToday_1":1,"TotalParcelWeightKG_1":0.78000000000000003}},{"type":"Feature","id":43,"geometry":{"type":"Point","coordinates":[16.335165440000026,48.202978640000026]},"properties":{"OBJECTID":43,"SOURCE_ID":18509,"TotalParcelWeightKG":2.7400000000000002,"NumParcelsToday":1,"ZONE_ID":32,"Join_Count":1,"District":15,"Address":"Geyschlägergasse 2-12/1, 1150","Longitude":16.335165440000001,"Latitude":48.202978639999998,"Postal":1150,"City":"Vienna","NumHouseholds":1,"NumPeople":4,"NumParcelsToday_1":1,"TotalParcelWeightKG_1":2.7400000000000002}},{"type":"Feature","id":44,"geometry":{"type":"Point","coordinates":[16.335205930000029,48.202667560000066]},"properties":{"OBJECTID":44,"SOURCE_ID":18510,"TotalParcelWeightKG":4.7000000000000002,"NumParcelsToday":1,"ZONE_ID":32,"Join_Count":2,"District":15,"Address":"Geyschlägergasse 2-12/4, 1150","Longitude":16.335205930000001,"Latitude":48.202667560000002,"Postal":1150,"City":"Vienna","NumHouseholds":1,"NumPeople":2,"NumParcelsToday_1":1,"TotalParcelWeightKG_1":4.7000000000000002}},{"type":"Feature","id":45,"geometry":{"type":"Point","coordinates":[16.336095440000065,48.199168590000056]},"properties":{"OBJECTID":45,"SOURCE_ID":18514,"TotalParcelWeightKG":0.14000000000000001,"NumParcelsToday":1,"ZONE_ID":32,"Join_Count":1,"District":15,"Address":"Goldschlagstraße 10, 1150","Longitude":16.336095440000001,"Latitude":48.199168589999999,"Postal":1150,"City":"Vienna","NumHouseholds":1,"NumPeople":3,"NumParcelsToday_1":1,"TotalParcelWeightKG_1":0.14000000000000001}},{"type":"Feature","id":46,"geometry":{"type":"Point","coordinates":[16.336638770000036,48.199427230000026]},"properties":{"OBJECTID":46,"SOURCE_ID":18531,"TotalParcelWeightKG":0.20000000000000001,"NumParcelsToday":1,"ZONE_ID":32,"Join_Count":1,"District":15,"Address":"Goldschlagstraße 6, 1150","Longitude":16.33663877,"Latitude":48.199427229999998,"Postal":1150,"City":"Vienna","NumHouseholds":1,"NumPeople":4,"NumParcelsToday_1":1,"TotalParcelWeightKG_1":0.20000000000000001}},{"type":"Feature","id":47,"geometry":{"type":"Point","coordinates":[16.336176960000046,48.198866240000029]},"properties":{"OBJECTID":47,"SOURCE_ID":18533,"TotalParcelWeightKG":0.93999999999999995,"NumParcelsToday":1,"ZONE_ID":32,"Join_Count":1,"District":15,"Address":"Goldschlagstraße 7, 1150","Longitude":16.33617696,"Latitude":48.198866240000001,"Postal":1150,"City":"Vienna","NumHouseholds":1,"NumPeople":3,"NumParcelsToday_1":1,"TotalParcelWeightKG_1":0.93999999999999995}},{"type":"Feature","id":48,"geometry":{"type":"Point","coordinates":[16.335317930000031,48.197868620000065]},"properties":{"OBJECTID":48,"SOURCE_ID":18579,"TotalParcelWeightKG":1.47,"NumParcelsToday":1,"ZONE_ID":32,"Join_Count":1,"District":15,"Address":"Hackengasse 2-8/1, 1150","Longitude":16.335317929999999,"Latitude":48.197868620000001,"Postal":1150,"City":"Vienna","NumHouseholds":1,"NumPeople":1,"NumParcelsToday_1":1,"TotalParcelWeightKG_1":1.47}},{"type":"Feature","id":49,"geometry":{"type":"Point","coordinates":[16.336300860000051,48.202020240000081]},"properties":{"OBJECTID":49,"SOURCE_ID":18664,"TotalParcelWeightKG":0.91000000000000003,"NumParcelsToday":1,"ZONE_ID":32,"Join_Count":2,"District":15,"Address":"Hütteldorfer Straße 2A/2, 1150","Longitude":16.336300860000001,"Latitude":48.202020240000003,"Postal":1150,"City":"Vienna","NumHouseholds":1,"NumPeople":4,"NumParcelsToday_1":1,"TotalParcelWeightKG_1":0.91000000000000003}},{"type":"Feature","id":50,"geometry":{"type":"Point","coordinates":[16.336081050000075,48.202069790000053]},"properties":{"OBJECTID":50,"SOURCE_ID":18665,"TotalParcelWeightKG":1.26,"NumParcelsToday":1,"ZONE_ID":32,"Join_Count":3,"District":15,"Address":"Hütteldorfer Straße 2A/3, 1150","Longitude":16.336081050000001,"Latitude":48.202069790000003,"Postal":1150,"City":"Vienna","NumHouseholds":1,"NumPeople":5,"NumParcelsToday_1":1,"TotalParcelWeightKG_1":1.26}},{"type":"Feature","id":51,"geometry":{"type":"Point","coordinates":[16.336390590000065,48.201064530000053]},"properties":{"OBJECTID":51,"SOURCE_ID":18667,"TotalParcelWeightKG":0.35999999999999999,"NumParcelsToday":1,"ZONE_ID":32,"Join_Count":1,"District":15,"Address":"Hütteldorfer Straße 3-5/3, 1150","Longitude":16.336390590000001,"Latitude":48.201064529999996,"Postal":1150,"City":"Vienna","NumHouseholds":1,"NumPeople":2,"NumParcelsToday_1":1,"TotalParcelWeightKG_1":0.35999999999999999}},{"type":"Feature","id":52,"geometry":{"type":"Point","coordinates":[16.337848760000043,48.195929060000026]},"properties":{"OBJECTID":52,"SOURCE_ID":18832,"TotalParcelWeightKG":0.26000000000000001,"NumParcelsToday":2,"ZONE_ID":32,"Join_Count":2,"District":15,"Address":"Europaplatz 1, 1150","Longitude":16.33784876,"Latitude":48.195929059999997,"Postal":1150,"City":"Vienna","NumHouseholds":1,"NumPeople":3,"NumParcelsToday_1":1,"TotalParcelWeightKG_1":0.79000000000000004}},{"type":"Feature","id":53,"geometry":{"type":"Point","coordinates":[16.337109430000055,48.198192640000059]},"properties":{"OBJECTID":53,"SOURCE_ID":18873,"TotalParcelWeightKG":0.40000000000000002,"NumParcelsToday":1,"ZONE_ID":32,"Join_Count":1,"District":15,"Address":"Löhrgasse 1, 1150","Longitude":16.337109430000002,"Latitude":48.198192640000002,"Postal":1150,"City":"Vienna","NumHouseholds":1,"NumPeople":3,"NumParcelsToday_1":1,"TotalParcelWeightKG_1":0.40000000000000002}},{"type":"Feature","id":54,"geometry":{"type":"Point","coordinates":[16.336910230000058,48.19953847000005]},"properties":{"OBJECTID":54,"SOURCE_ID":18874,"TotalParcelWeightKG":1.1100000000000001,"NumParcelsToday":1,"ZONE_ID":32,"Join_Count":1,"District":15,"Address":"Löhrgasse 14, 1150","Longitude":16.336910230000001,"Latitude":48.19953847,"Postal":1150,"City":"Vienna","NumHouseholds":1,"NumPeople":2,"NumParcelsToday_1":1,"TotalParcelWeightKG_1":1.1100000000000001}},{"type":"Feature","id":55,"geometry":{"type":"Point","coordinates":[16.336691780000024,48.200108370000066]},"properties":{"OBJECTID":55,"SOURCE_ID":18875,"TotalParcelWeightKG":0.27000000000000002,"NumParcelsToday":1,"ZONE_ID":32,"Join_Count":1,"District":15,"Address":"Löhrgasse 20, 1150","Longitude":16.336691779999999,"Latitude":48.200108370000002,"Postal":1150,"City":"Vienna","NumHouseholds":1,"NumPeople":4,"NumParcelsToday_1":1,"TotalParcelWeightKG_1":0.27000000000000002}},{"type":"Feature","id":56,"geometry":{"type":"Point","coordinates":[16.336162030000025,48.200346240000044]},"properties":{"OBJECTID":56,"SOURCE_ID":18876,"TotalParcelWeightKG":0.11,"NumParcelsToday":1,"ZONE_ID":32,"Join_Count":2,"District":15,"Address":"Löhrgasse 23, 1150","Longitude":16.336162030000001,"Latitude":48.200346240000002,"Postal":1150,"City":"Vienna","NumHouseholds":1,"NumPeople":3,"NumParcelsToday_1":1,"TotalParcelWeightKG_1":0.11}},{"type":"Feature","id":57,"geometry":{"type":"Point","coordinates":[16.336329380000052,48.201200060000076]},"properties":{"OBJECTID":57,"SOURCE_ID":18877,"TotalParcelWeightKG":0.60999999999999999,"NumParcelsToday":1,"ZONE_ID":32,"Join_Count":2,"District":15,"Address":"Löhrgasse 26/2, 1150","Longitude":16.336329379999999,"Latitude":48.201200059999998,"Postal":1150,"City":"Vienna","NumHouseholds":1,"NumPeople":3,"NumParcelsToday_1":1,"TotalParcelWeightKG_1":0.60999999999999999}},{"type":"Feature","id":58,"geometry":{"type":"Point","coordinates":[16.33643606000004,48.200951220000036]},"properties":{"OBJECTID":58,"SOURCE_ID":18878,"TotalParcelWeightKG":1.3799999999999999,"NumParcelsToday":1,"ZONE_ID":32,"Join_Count":2,"District":15,"Address":"Löhrgasse 26/4, 1150","Longitude":16.33643606,"Latitude":48.20095122,"Postal":1150,"City":"Vienna","NumHouseholds":1,"NumPeople":1,"NumParcelsToday_1":1,"TotalParcelWeightKG_1":1.3799999999999999}},{"type":"Feature","id":59,"geometry":{"type":"Point","coordinates":[16.336462290000043,48.201238640000042]},"properties":{"OBJECTID":59,"SOURCE_ID":18879,"TotalParcelWeightKG":0.64000000000000001,"NumParcelsToday":1,"ZONE_ID":32,"Join_Count":1,"District":15,"Address":"Löhrgasse 28/1, 1150","Longitude":16.33646229,"Latitude":48.20123864,"Postal":1150,"City":"Vienna","NumHouseholds":1,"NumPeople":3,"NumParcelsToday_1":1,"TotalParcelWeightKG_1":0.64000000000000001}},{"type":"Feature","id":60,"geometry":{"type":"Point","coordinates":[16.336329380000052,48.201200060000076]},"properties":{"OBJECTID":60,"SOURCE_ID":18880,"TotalParcelWeightKG":1.29,"NumParcelsToday":1,"ZONE_ID":32,"Join_Count":2,"District":15,"Address":"Löhrgasse 26/2, 1150","Longitude":16.336329379999999,"Latitude":48.201200059999998,"Postal":1150,"City":"Vienna","NumHouseholds":1,"NumPeople":3,"NumParcelsToday_1":1,"TotalParcelWeightKG_1":0.60999999999999999}},{"type":"Feature","id":61,"geometry":{"type":"Point","coordinates":[16.33643606000004,48.200951220000036]},"properties":{"OBJECTID":61,"SOURCE_ID":18881,"TotalParcelWeightKG":0.40000000000000002,"NumParcelsToday":2,"ZONE_ID":32,"Join_Count":2,"District":15,"Address":"Löhrgasse 26/4, 1150","Longitude":16.33643606,"Latitude":48.20095122,"Postal":1150,"City":"Vienna","NumHouseholds":1,"NumPeople":1,"NumParcelsToday_1":1,"TotalParcelWeightKG_1":1.3799999999999999}},{"type":"Feature","id":62,"geometry":{"type":"Point","coordinates":[16.336968600000034,48.198557140000048]},"properties":{"OBJECTID":62,"SOURCE_ID":18882,"TotalParcelWeightKG":0.25,"NumParcelsToday":1,"ZONE_ID":32,"Join_Count":1,"District":15,"Address":"Löhrgasse 5, 1150","Longitude":16.336968599999999,"Latitude":48.198557139999998,"Postal":1150,"City":"Vienna","NumHouseholds":1,"NumPeople":1,"NumParcelsToday_1":1,"TotalParcelWeightKG_1":0.25}},{"type":"Feature","id":63,"geometry":{"type":"Point","coordinates":[16.337249470000074,48.198643650000065]},"properties":{"OBJECTID":63,"SOURCE_ID":18883,"TotalParcelWeightKG":0.87,"NumParcelsToday":1,"ZONE_ID":32,"Join_Count":1,"District":15,"Address":"Löhrgasse 6, 1150","Longitude":16.33724947,"Latitude":48.198643650000001,"Postal":1150,"City":"Vienna","NumHouseholds":1,"NumPeople":2,"NumParcelsToday_1":1,"TotalParcelWeightKG_1":0.87}},{"type":"Feature","id":64,"geometry":{"type":"Point","coordinates":[16.337188000000026,48.198804090000067]},"properties":{"OBJECTID":64,"SOURCE_ID":18884,"TotalParcelWeightKG":1.4099999999999999,"NumParcelsToday":1,"ZONE_ID":32,"Join_Count":1,"District":15,"Address":"Löhrgasse 8, 1150","Longitude":16.337188000000001,"Latitude":48.198804090000003,"Postal":1150,"City":"Vienna","NumHouseholds":1,"NumPeople":1,"NumParcelsToday_1":1,"TotalParcelWeightKG_1":1.4099999999999999}},{"type":"Feature","id":65,"geometry":{"type":"Point","coordinates":[16.33659823000005,48.19510807000006]},"properties":{"OBJECTID":65,"SOURCE_ID":18897,"TotalParcelWeightKG":0.94999999999999996,"NumParcelsToday":1,"ZONE_ID":32,"Join_Count":1,"District":15,"Address":"Mariahilfer Straße 136, 1150","Longitude":16.33659823,"Latitude":48.195108070000003,"Postal":1150,"City":"Vienna","NumHouseholds":1,"NumPeople":4,"NumParcelsToday_1":1,"TotalParcelWeightKG_1":0.94999999999999996}},{"type":"Feature","id":66,"geometry":{"type":"Point","coordinates":[16.337020850000044,48.194795640000052]},"properties":{"OBJECTID":66,"SOURCE_ID":18898,"TotalParcelWeightKG":0.31,"NumParcelsToday":1,"ZONE_ID":32,"Join_Count":1,"District":15,"Address":"Mariahilfer Straße 137, 1150","Longitude":16.337020849999998,"Latitude":48.194795640000002,"Postal":1150,"City":"Vienna","NumHouseholds":1,"NumPeople":1,"NumParcelsToday_1":1,"TotalParcelWeightKG_1":0.31}},{"type":"Feature","id":67,"geometry":{"type":"Point","coordinates":[16.336046340000053,48.194780360000038]},"properties":{"OBJECTID":67,"SOURCE_ID":18899,"TotalParcelWeightKG":1.1599999999999999,"NumParcelsToday":1,"ZONE_ID":32,"Join_Count":1,"District":15,"Address":"Mariahilfer Straße 140, 1150","Longitude":16.336046339999999,"Latitude":48.194780360000003,"Postal":1150,"City":"Vienna","NumHouseholds":1,"NumPeople":5,"NumParcelsToday_1":1,"TotalParcelWeightKG_1":1.1599999999999999}},{"type":"Feature","id":68,"geometry":{"type":"Point","coordinates":[16.336079290000043,48.19444500000003]},"properties":{"OBJECTID":68,"SOURCE_ID":18901,"TotalParcelWeightKG":4.3399999999999999,"NumParcelsToday":1,"ZONE_ID":32,"Join_Count":1,"District":15,"Address":"Mariahilfer Straße 145, 1150","Longitude":16.336079290000001,"Latitude":48.194445000000002,"Postal":1150,"City":"Vienna","NumHouseholds":1,"NumPeople":3,"NumParcelsToday_1":1,"TotalParcelWeightKG_1":4.3399999999999999}},{"type":"Feature","id":69,"geometry":{"type":"Point","coordinates":[16.335512750000078,48.19387861000007]},"properties":{"OBJECTID":69,"SOURCE_ID":18903,"TotalParcelWeightKG":2.48,"NumParcelsToday":1,"ZONE_ID":32,"Join_Count":1,"District":15,"Address":"Mariahilfer Straße 151, 1150","Longitude":16.335512749999999,"Latitude":48.193878609999999,"Postal":1150,"City":"Vienna","NumHouseholds":1,"NumPeople":6,"NumParcelsToday_1":1,"TotalParcelWeightKG_1":2.48}},{"type":"Feature","id":70,"geometry":{"type":"Point","coordinates":[16.334083280000073,48.202880060000041]},"properties":{"OBJECTID":70,"SOURCE_ID":18963,"TotalParcelWeightKG":0.77000000000000002,"NumParcelsToday":1,"ZONE_ID":32,"Join_Count":1,"District":15,"Address":"Moeringgasse 12, 1150","Longitude":16.334083280000002,"Latitude":48.202880059999998,"Postal":1150,"City":"Vienna","NumHouseholds":1,"NumPeople":3,"NumParcelsToday_1":1,"TotalParcelWeightKG_1":0.77000000000000002}},{"type":"Feature","id":71,"geometry":{"type":"Point","coordinates":[16.334036180000055,48.203376300000059]},"properties":{"OBJECTID":71,"SOURCE_ID":18964,"TotalParcelWeightKG":1.23,"NumParcelsToday":1,"ZONE_ID":32,"Join_Count":1,"District":15,"Address":"Moeringgasse 18, 1150","Longitude":16.334036179999998,"Latitude":48.203376300000002,"Postal":1150,"City":"Vienna","NumHouseholds":1,"NumPeople":3,"NumParcelsToday_1":1,"TotalParcelWeightKG_1":1.23}},{"type":"Feature","id":72,"geometry":{"type":"Point","coordinates":[16.334471320000034,48.20225916000004]},"properties":{"OBJECTID":72,"SOURCE_ID":18965,"TotalParcelWeightKG":0.14999999999999999,"NumParcelsToday":1,"ZONE_ID":32,"Join_Count":1,"District":15,"Address":"Märzpark, 1150","Longitude":16.334471319999999,"Latitude":48.202259159999997,"Postal":1150,"City":"Vienna","NumHouseholds":1,"NumPeople":2,"NumParcelsToday_1":1,"TotalParcelWeightKG_1":0.14999999999999999}},{"type":"Feature","id":73,"geometry":{"type":"Point","coordinates":[16.336162030000025,48.200346240000044]},"properties":{"OBJECTID":73,"SOURCE_ID":18972,"TotalParcelWeightKG":0.23000000000000001,"NumParcelsToday":1,"ZONE_ID":32,"Join_Count":2,"District":15,"Address":"Löhrgasse 23, 1150","Longitude":16.336162030000001,"Latitude":48.200346240000002,"Postal":1150,"City":"Vienna","NumHouseholds":1,"NumPeople":3,"NumParcelsToday_1":1,"TotalParcelWeightKG_1":0.11}},{"type":"Feature","id":74,"geometry":{"type":"Point","coordinates":[16.336653980000051,48.200737720000063]},"properties":{"OBJECTID":74,"SOURCE_ID":18976,"TotalParcelWeightKG":0.5,"NumParcelsToday":1,"ZONE_ID":32,"Join_Count":1,"District":15,"Address":"Märzstraße 4, 1150","Longitude":16.336653980000001,"Latitude":48.200737719999999,"Postal":1150,"City":"Vienna","NumHouseholds":1,"NumPeople":4,"NumParcelsToday_1":1,"TotalParcelWeightKG_1":0.5}},{"type":"Feature","id":75,"geometry":{"type":"Point","coordinates":[16.335454440000035,48.200150370000074]},"properties":{"OBJECTID":75,"SOURCE_ID":18990,"TotalParcelWeightKG":2.9799999999999995,"NumParcelsToday":2,"ZONE_ID":32,"Join_Count":1,"District":15,"Address":"Märzstraße 9, 1150","Longitude":16.335454439999999,"Latitude":48.200150370000003,"Postal":1150,"City":"Vienna","NumHouseholds":2,"NumPeople":8,"NumParcelsToday_1":2,"TotalParcelWeightKG_1":2.9799999999999995}},{"type":"Feature","id":76,"geometry":{"type":"Point","coordinates":[16.337903890000064,48.198273030000053]},"properties":{"OBJECTID":76,"SOURCE_ID":18993,"TotalParcelWeightKG":0.16,"NumParcelsToday":1,"ZONE_ID":32,"Join_Count":2,"District":15,"Address":"Felberstraße 2, 1150","Longitude":16.33790389,"Latitude":48.198273030000003,"Postal":1150,"City":"Vienna","NumHouseholds":1,"NumPeople":5,"NumParcelsToday_1":1,"TotalParcelWeightKG_1":0.40000000000000002}},{"type":"Feature","id":77,"geometry":{"type":"Point","coordinates":[16.337550140000076,48.199316870000075]},"properties":{"OBJECTID":77,"SOURCE_ID":18994,"TotalParcelWeightKG":0.76000000000000001,"NumParcelsToday":1,"ZONE_ID":32,"Join_Count":1,"District":15,"Address":"Neubaugürtel 11, 1150","Longitude":16.337550140000001,"Latitude":48.199316869999997,"Postal":1150,"City":"Vienna","NumHouseholds":1,"NumPeople":1,"NumParcelsToday_1":1,"TotalParcelWeightKG_1":0.76000000000000001}},{"type":"Feature","id":78,"geometry":{"type":"Point","coordinates":[16.337948700000027,48.198566930000027]},"properties":{"OBJECTID":78,"SOURCE_ID":18997,"TotalParcelWeightKG":0.029999999999999999,"NumParcelsToday":1,"ZONE_ID":32,"Join_Count":1,"District":15,"Address":"Neubaugürtel 3, 1150","Longitude":16.337948699999998,"Latitude":48.198566929999998,"Postal":1150,"City":"Vienna","NumHouseholds":1,"NumPeople":5,"NumParcelsToday_1":1,"TotalParcelWeightKG_1":0.029999999999999999}},{"type":"Feature","id":79,"geometry":{"type":"Point","coordinates":[16.336718850000068,48.202500110000074]},"properties":{"OBJECTID":79,"SOURCE_ID":18998,"TotalParcelWeightKG":1.8799999999999999,"NumParcelsToday":1,"ZONE_ID":32,"Join_Count":1,"District":15,"Address":"Neubaugürtel 33, 1150","Longitude":16.33671885,"Latitude":48.202500110000003,"Postal":1150,"City":"Vienna","NumHouseholds":1,"NumPeople":2,"NumParcelsToday_1":1,"TotalParcelWeightKG_1":1.8799999999999999}},{"type":"Feature","id":80,"geometry":{"type":"Point","coordinates":[16.336637200000041,48.203341240000043]},"properties":{"OBJECTID":80,"SOURCE_ID":18999,"TotalParcelWeightKG":0.44,"NumParcelsToday":1,"ZONE_ID":32,"Join_Count":1,"District":15,"Address":"Neubaugürtel 39, 1150","Longitude":16.336637199999998,"Latitude":48.20334124,"Postal":1150,"City":"Vienna","NumHouseholds":1,"NumPeople":4,"NumParcelsToday_1":1,"TotalParcelWeightKG_1":0.44}},{"type":"Feature","id":81,"geometry":{"type":"Point","coordinates":[16.336621730000047,48.203773190000049]},"properties":{"OBJECTID":81,"SOURCE_ID":19000,"TotalParcelWeightKG":4.9299999999999997,"NumParcelsToday":1,"ZONE_ID":32,"Join_Count":1,"District":15,"Address":"Neubaugürtel 45, 1150","Longitude":16.336621730000001,"Latitude":48.20377319,"Postal":1150,"City":"Vienna","NumHouseholds":1,"NumPeople":2,"NumParcelsToday_1":1,"TotalParcelWeightKG_1":4.9299999999999997}},{"type":"Feature","id":82,"geometry":{"type":"Point","coordinates":[16.337778950000029,48.199054540000077]},"properties":{"OBJECTID":82,"SOURCE_ID":19001,"TotalParcelWeightKG":3.5499999999999998,"NumParcelsToday":1,"ZONE_ID":32,"Join_Count":1,"District":15,"Address":"Neubaugürtel 7-9/2, 1150","Longitude":16.337778950000001,"Latitude":48.199054539999999,"Postal":1150,"City":"Vienna","NumHouseholds":1,"NumPeople":4,"NumParcelsToday_1":1,"TotalParcelWeightKG_1":3.5499999999999998}},{"type":"Feature","id":83,"geometry":{"type":"Point","coordinates":[16.337940100000026,48.195119830000067]},"properties":{"OBJECTID":83,"SOURCE_ID":19049,"TotalParcelWeightKG":0.78000000000000003,"NumParcelsToday":1,"ZONE_ID":32,"Join_Count":1,"District":15,"Address":"Palmgasse 12, 1150","Longitude":16.337940100000001,"Latitude":48.195119830000003,"Postal":1150,"City":"Vienna","NumHouseholds":1,"NumPeople":2,"NumParcelsToday_1":1,"TotalParcelWeightKG_1":0.78000000000000003}},{"type":"Feature","id":84,"geometry":{"type":"Point","coordinates":[16.336416130000032,48.197989670000027]},"properties":{"OBJECTID":84,"SOURCE_ID":19056,"TotalParcelWeightKG":0.72999999999999998,"NumParcelsToday":2,"ZONE_ID":32,"Join_Count":2,"District":15,"Address":"Felberstraße 10, 1150","Longitude":16.33641613,"Latitude":48.197989669999998,"Postal":1150,"City":"Vienna","NumHouseholds":1,"NumPeople":2,"NumParcelsToday_1":1,"TotalParcelWeightKG_1":1.51}},{"type":"Feature","id":85,"geometry":{"type":"Point","coordinates":[16.335250640000027,48.199791720000064]},"properties":{"OBJECTID":85,"SOURCE_ID":19057,"TotalParcelWeightKG":0.73999999999999999,"NumParcelsToday":1,"ZONE_ID":32,"Join_Count":1,"District":15,"Address":"Pelzgasse 19, 1150","Longitude":16.335250640000002,"Latitude":48.19979172,"Postal":1150,"City":"Vienna","NumHouseholds":1,"NumPeople":5,"NumParcelsToday_1":1,"TotalParcelWeightKG_1":0.73999999999999999}},{"type":"Feature","id":86,"geometry":{"type":"Point","coordinates":[16.336691620000067,48.198068900000067]},"properties":{"OBJECTID":86,"SOURCE_ID":19058,"TotalParcelWeightKG":0.64000000000000001,"NumParcelsToday":1,"ZONE_ID":32,"Join_Count":2,"District":15,"Address":"Felberstraße 8, 1150","Longitude":16.33669162,"Latitude":48.198068900000003,"Postal":1150,"City":"Vienna","NumHouseholds":1,"NumPeople":4,"NumParcelsToday_1":1,"TotalParcelWeightKG_1":0.20999999999999999}},{"type":"Feature","id":87,"geometry":{"type":"Point","coordinates":[16.335527080000077,48.199871940000037]},"properties":{"OBJECTID":87,"SOURCE_ID":19059,"TotalParcelWeightKG":0.27000000000000002,"NumParcelsToday":1,"ZONE_ID":32,"Join_Count":1,"District":15,"Address":"Pelzgasse 22, 1150","Longitude":16.335527079999999,"Latitude":48.199871940000001,"Postal":1150,"City":"Vienna","NumHouseholds":1,"NumPeople":2,"NumParcelsToday_1":1,"TotalParcelWeightKG_1":0.27000000000000002}},{"type":"Feature","id":88,"geometry":{"type":"Point","coordinates":[16.336265200000071,48.198219980000033]},"properties":{"OBJECTID":88,"SOURCE_ID":19060,"TotalParcelWeightKG":1.5900000000000001,"NumParcelsToday":1,"ZONE_ID":32,"Join_Count":1,"District":15,"Address":"Pelzgasse 3, 1150","Longitude":16.3362652,"Latitude":48.198219979999998,"Postal":1150,"City":"Vienna","NumHouseholds":1,"NumPeople":3,"NumParcelsToday_1":1,"TotalParcelWeightKG_1":1.5900000000000001}},{"type":"Feature","id":89,"geometry":{"type":"Point","coordinates":[16.336517920000063,48.194620460000067]},"properties":{"OBJECTID":89,"SOURCE_ID":19154,"TotalParcelWeightKG":0.77000000000000002,"NumParcelsToday":1,"ZONE_ID":32,"Join_Count":1,"District":15,"Address":"Robert-Hamerling-Gasse 8, 1150","Longitude":16.336517919999999,"Latitude":48.194620460000003,"Postal":1150,"City":"Vienna","NumHouseholds":1,"NumPeople":1,"NumParcelsToday_1":1,"TotalParcelWeightKG_1":0.77000000000000002}},{"type":"Feature","id":90,"geometry":{"type":"Point","coordinates":[16.336276110000028,48.201796040000033]},"properties":{"OBJECTID":90,"SOURCE_ID":19270,"TotalParcelWeightKG":5.9000000000000004,"NumParcelsToday":1,"ZONE_ID":32,"Join_Count":2,"District":15,"Address":"Sorbaitgasse 3/1, 1150","Longitude":16.33627611,"Latitude":48.201796039999998,"Postal":1150,"City":"Vienna","NumHouseholds":1,"NumPeople":1,"NumParcelsToday_1":1,"TotalParcelWeightKG_1":5.9000000000000004}},{"type":"Feature","id":91,"geometry":{"type":"Point","coordinates":[16.336081050000075,48.202069790000053]},"properties":{"OBJECTID":91,"SOURCE_ID":19271,"TotalParcelWeightKG":0.029999999999999999,"NumParcelsToday":1,"ZONE_ID":32,"Join_Count":3,"District":15,"Address":"Hütteldorfer Straße 2A/3, 1150","Longitude":16.336081050000001,"Latitude":48.202069790000003,"Postal":1150,"City":"Vienna","NumHouseholds":1,"NumPeople":5,"NumParcelsToday_1":1,"TotalParcelWeightKG_1":1.26}},{"type":"Feature","id":92,"geometry":{"type":"Point","coordinates":[16.336070020000022,48.20218742000003]},"properties":{"OBJECTID":92,"SOURCE_ID":19272,"TotalParcelWeightKG":1.8200000000000001,"NumParcelsToday":1,"ZONE_ID":32,"Join_Count":1,"District":15,"Address":"Sorbaitgasse 3/4, 1150","Longitude":16.336070020000001,"Latitude":48.202187420000001,"Postal":1150,"City":"Vienna","NumHouseholds":1,"NumPeople":3,"NumParcelsToday_1":1,"TotalParcelWeightKG_1":1.8200000000000001}},{"type":"Feature","id":93,"geometry":{"type":"Point","coordinates":[16.335716070000046,48.202851210000063]},"properties":{"OBJECTID":93,"SOURCE_ID":19273,"TotalParcelWeightKG":0.080000000000000002,"NumParcelsToday":1,"ZONE_ID":32,"Join_Count":1,"District":15,"Address":"Sorbaitgasse 6, 1150","Longitude":16.33571607,"Latitude":48.202851209999999,"Postal":1150,"City":"Vienna","NumHouseholds":1,"NumPeople":3,"NumParcelsToday_1":1,"TotalParcelWeightKG_1":0.080000000000000002}},{"type":"Feature","id":94,"geometry":{"type":"Point","coordinates":[16.335368040000048,48.202670800000078]},"properties":{"OBJECTID":94,"SOURCE_ID":19274,"TotalParcelWeightKG":0.83999999999999997,"NumParcelsToday":2,"ZONE_ID":32,"Join_Count":1,"District":15,"Address":"Sorbaitgasse 8-10/3, 1150","Longitude":16.335368039999999,"Latitude":48.2026708,"Postal":1150,"City":"Vienna","NumHouseholds":2,"NumPeople":3,"NumParcelsToday_1":2,"TotalParcelWeightKG_1":0.83999999999999997}},{"type":"Feature","id":95,"geometry":{"type":"Point","coordinates":[16.335205930000029,48.202667560000066]},"properties":{"OBJECTID":95,"SOURCE_ID":19275,"TotalParcelWeightKG":0.050000000000000003,"NumParcelsToday":1,"ZONE_ID":32,"Join_Count":2,"District":15,"Address":"Geyschlägergasse 2-12/4, 1150","Longitude":16.335205930000001,"Latitude":48.202667560000002,"Postal":1150,"City":"Vienna","NumHouseholds":1,"NumPeople":2,"NumParcelsToday_1":1,"TotalParcelWeightKG_1":4.7000000000000002}},{"type":"Feature","id":96,"geometry":{"type":"Point","coordinates":[16.336300860000051,48.202020240000081]},"properties":{"OBJECTID":96,"SOURCE_ID":19378,"TotalParcelWeightKG":2.4100000000000001,"NumParcelsToday":2,"ZONE_ID":32,"Join_Count":2,"District":15,"Address":"Hütteldorfer Straße 2A/2, 1150","Longitude":16.336300860000001,"Latitude":48.202020240000003,"Postal":1150,"City":"Vienna","NumHouseholds":1,"NumPeople":4,"NumParcelsToday_1":1,"TotalParcelWeightKG_1":0.91000000000000003}},{"type":"Feature","id":97,"geometry":{"type":"Point","coordinates":[16.335674090000055,48.203247360000034]},"properties":{"OBJECTID":97,"SOURCE_ID":19452,"TotalParcelWeightKG":0.01,"NumParcelsToday":1,"ZONE_ID":32,"Join_Count":1,"District":15,"Address":"Wurzbachgasse 15, 1150","Longitude":16.335674090000001,"Latitude":48.203247359999999,"Postal":1150,"City":"Vienna","NumHouseholds":1,"NumPeople":1,"NumParcelsToday_1":1,"TotalParcelWeightKG_1":0.01}},{"type":"Feature","id":98,"geometry":{"type":"Point","coordinates":[16.335956470000042,48.203450780000026]},"properties":{"OBJECTID":98,"SOURCE_ID":19453,"TotalParcelWeightKG":0.70999999999999996,"NumParcelsToday":2,"ZONE_ID":32,"Join_Count":1,"District":15,"Address":"Wurzbachgasse 18, 1150","Longitude":16.335956469999999,"Latitude":48.203450779999997,"Postal":1150,"City":"Vienna","NumHouseholds":1,"NumPeople":7,"NumParcelsToday_1":2,"TotalParcelWeightKG_1":0.70999999999999996}},{"type":"Feature","id":99,"geometry":{"type":"Point","coordinates":[16.336276110000028,48.201796040000033]},"properties":{"OBJECTID":99,"SOURCE_ID":19454,"TotalParcelWeightKG":0.84999999999999998,"NumParcelsToday":1,"ZONE_ID":32,"Join_Count":2,"District":15,"Address":"Sorbaitgasse 3/1, 1150","Longitude":16.33627611,"Latitude":48.201796039999998,"Postal":1150,"City":"Vienna","NumHouseholds":1,"NumPeople":1,"NumParcelsToday_1":1,"TotalParcelWeightKG_1":5.9000000000000004}},{"type":"Feature","id":100,"geometry":{"type":"Point","coordinates":[16.336081050000075,48.202069790000053]},"properties":{"OBJECTID":100,"SOURCE_ID":19455,"TotalParcelWeightKG":1.3899999999999999,"NumParcelsToday":2,"ZONE_ID":32,"Join_Count":3,"District":15,"Address":"Hütteldorfer Straße 2A/3, 1150","Longitude":16.336081050000001,"Latitude":48.202069790000003,"Postal":1150,"City":"Vienna","NumHouseholds":1,"NumPeople":5,"NumParcelsToday_1":1,"TotalParcelWeightKG_1":1.26}},{"type":"Feature","id":101,"geometry":{"type":"Point","coordinates":[16.336270600000034,48.202231490000031]},"properties":{"OBJECTID":101,"SOURCE_ID":19456,"TotalParcelWeightKG":0.65000000000000002,"NumParcelsToday":1,"ZONE_ID":32,"Join_Count":1,"District":15,"Address":"Wurzbachgasse 2-8/5, 1150","Longitude":16.336270599999999,"Latitude":48.202231490000003,"Postal":1150,"City":"Vienna","NumHouseholds":1,"NumPeople":3,"NumParcelsToday_1":1,"TotalParcelWeightKG_1":0.65000000000000002}},{"type":"Feature","id":102,"geometry":{"type":"Point","coordinates":[16.335511980000035,48.203728310000031]},"properties":{"OBJECTID":102,"SOURCE_ID":19457,"TotalParcelWeightKG":0.75,"NumParcelsToday":1,"ZONE_ID":32,"Join_Count":1,"District":15,"Address":"Wurzbachgasse 21/6, 1150","Longitude":16.33551198,"Latitude":48.203728310000002,"Postal":1150,"City":"Vienna","NumHouseholds":1,"NumPeople":4,"NumParcelsToday_1":1,"TotalParcelWeightKG_1":0.75}},{"type":"Feature","id":103,"geometry":{"type":"Point","coordinates":[16.334979740000051,48.198491750000073]},"properties":{"OBJECTID":103,"SOURCE_ID":19462,"TotalParcelWeightKG":0.41999999999999998,"NumParcelsToday":1,"ZONE_ID":32,"Join_Count":1,"District":15,"Address":"Zinckgasse 11, 1150","Longitude":16.334979740000001,"Latitude":48.198491750000002,"Postal":1150,"City":"Vienna","NumHouseholds":1,"NumPeople":5,"NumParcelsToday_1":1,"TotalParcelWeightKG_1":0.41999999999999998}},{"type":"Feature","id":104,"geometry":{"type":"Point","coordinates":[16.334511580000026,48.199749810000071]},"properties":{"OBJECTID":104,"SOURCE_ID":19465,"TotalParcelWeightKG":0.01,"NumParcelsToday":1,"ZONE_ID":32,"Join_Count":1,"District":15,"Address":"Zinckgasse 20-22, 1150","Longitude":16.334511580000001,"Latitude":48.19974981,"Postal":1150,"City":"Vienna","NumHouseholds":1,"NumPeople":1,"NumParcelsToday_1":1,"TotalParcelWeightKG_1":0.01}},{"type":"Feature","id":105,"geometry":{"type":"Point","coordinates":[16.335199420000038,48.198186890000045]},"properties":{"OBJECTID":105,"SOURCE_ID":19467,"TotalParcelWeightKG":3.9900000000000002,"NumParcelsToday":1,"ZONE_ID":32,"Join_Count":1,"District":15,"Address":"Zinckgasse 7, 1150","Longitude":16.335199419999999,"Latitude":48.198186890000002,"Postal":1150,"City":"Vienna","NumHouseholds":1,"NumPeople":2,"NumParcelsToday_1":1,"TotalParcelWeightKG_1":3.9900000000000002}},{"type":"Feature","id":106,"geometry":{"type":"Point","coordinates":[16.335396750000029,48.19838051000005]},"properties":{"OBJECTID":106,"SOURCE_ID":19468,"TotalParcelWeightKG":0.48999999999999999,"NumParcelsToday":1,"ZONE_ID":32,"Join_Count":1,"District":15,"Address":"Zinckgasse 8, 1150","Longitude":16.335396750000001,"Latitude":48.19838051,"Postal":1150,"City":"Vienna","NumHouseholds":1,"NumPeople":2,"NumParcelsToday_1":1,"TotalParcelWeightKG_1":0.48999999999999999}},{"type":"Feature","id":107,"geometry":{"type":"Point","coordinates":[16.334519710000052,48.206797410000036]},"properties":{"OBJECTID":107,"SOURCE_ID":19641,"TotalParcelWeightKG":1.5800000000000001,"NumParcelsToday":1,"ZONE_ID":32,"Join_Count":2,"District":16,"Address":"Brunnengasse 13, 1160","Longitude":16.334519709999999,"Latitude":48.20679741,"Postal":1160,"City":"Vienna","NumHouseholds":1,"NumPeople":3,"NumParcelsToday_1":1,"TotalParcelWeightKG_1":1.5800000000000001}},{"type":"Feature","id":108,"geometry":{"type":"Point","coordinates":[16.334572450000053,48.20694732000004]},"properties":{"OBJECTID":108,"SOURCE_ID":19642,"TotalParcelWeightKG":3.3100000000000001,"NumParcelsToday":1,"ZONE_ID":32,"Join_Count":1,"District":16,"Address":"Brunnengasse 15, 1160","Longitude":16.33457245,"Latitude":48.206947319999998,"Postal":1160,"City":"Vienna","NumHouseholds":1,"NumPeople":2,"NumParcelsToday_1":1,"TotalParcelWeightKG_1":3.3100000000000001}},{"type":"Feature","id":109,"geometry":{"type":"Point","coordinates":[16.335009700000057,48.207318300000054]},"properties":{"OBJECTID":109,"SOURCE_ID":19643,"TotalParcelWeightKG":1.45,"NumParcelsToday":1,"ZONE_ID":32,"Join_Count":1,"District":16,"Address":"Brunnengasse 22, 1160","Longitude":16.335009700000001,"Latitude":48.207318299999997,"Postal":1160,"City":"Vienna","NumHouseholds":1,"NumPeople":4,"NumParcelsToday_1":1,"TotalParcelWeightKG_1":1.45}},{"type":"Feature","id":110,"geometry":{"type":"Point","coordinates":[16.335459190000051,48.208434710000063]},"properties":{"OBJECTID":110,"SOURCE_ID":19644,"TotalParcelWeightKG":0.47999999999999998,"NumParcelsToday":1,"ZONE_ID":32,"Join_Count":1,"District":16,"Address":"Brunnengasse 30, 1160","Longitude":16.335459190000002,"Latitude":48.208434709999999,"Postal":1160,"City":"Vienna","NumHouseholds":1,"NumPeople":6,"NumParcelsToday_1":1,"TotalParcelWeightKG_1":0.47999999999999998}},{"type":"Feature","id":111,"geometry":{"type":"Point","coordinates":[16.335152960000073,48.208645510000053]},"properties":{"OBJECTID":111,"SOURCE_ID":19645,"TotalParcelWeightKG":0.11,"NumParcelsToday":1,"ZONE_ID":32,"Join_Count":1,"District":16,"Address":"Brunnengasse 33, 1160","Longitude":16.335152959999999,"Latitude":48.208645509999997,"Postal":1160,"City":"Vienna","NumHouseholds":1,"NumPeople":1,"NumParcelsToday_1":1,"TotalParcelWeightKG_1":0.11}},{"type":"Feature","id":112,"geometry":{"type":"Point","coordinates":[16.335861600000044,48.210132540000075]},"properties":{"OBJECTID":112,"SOURCE_ID":19646,"TotalParcelWeightKG":0.97999999999999998,"NumParcelsToday":1,"ZONE_ID":32,"Join_Count":1,"District":16,"Address":"Brunnengasse 40, 1160","Longitude":16.335861600000001,"Latitude":48.210132539999996,"Postal":1160,"City":"Vienna","NumHouseholds":1,"NumPeople":1,"NumParcelsToday_1":1,"TotalParcelWeightKG_1":0.97999999999999998}},{"type":"Feature","id":113,"geometry":{"type":"Point","coordinates":[16.335455940000031,48.209582870000077]},"properties":{"OBJECTID":113,"SOURCE_ID":19647,"TotalParcelWeightKG":18.93,"NumParcelsToday":1,"ZONE_ID":32,"Join_Count":1,"District":16,"Address":"Brunnengasse 41, 1160","Longitude":16.335455939999999,"Latitude":48.209582869999998,"Postal":1160,"City":"Vienna","NumHouseholds":1,"NumPeople":1,"NumParcelsToday_1":1,"TotalParcelWeightKG_1":18.93}},{"type":"Feature","id":114,"geometry":{"type":"Point","coordinates":[16.33609720000004,48.210323280000068]},"properties":{"OBJECTID":114,"SOURCE_ID":19648,"TotalParcelWeightKG":0.75,"NumParcelsToday":1,"ZONE_ID":32,"Join_Count":1,"District":16,"Address":"Brunnengasse 42/2, 1160","Longitude":16.336097200000001,"Latitude":48.210323279999997,"Postal":1160,"City":"Vienna","NumHouseholds":1,"NumPeople":5,"NumParcelsToday_1":1,"TotalParcelWeightKG_1":0.75}},{"type":"Feature","id":115,"geometry":{"type":"Point","coordinates":[16.334841440000048,48.204916400000059]},"properties":{"OBJECTID":115,"SOURCE_ID":19654,"TotalParcelWeightKG":0.040000000000000001,"NumParcelsToday":1,"ZONE_ID":32,"Join_Count":1,"District":16,"Address":"Brunnengasse 8, 1160","Longitude":16.334841440000002,"Latitude":48.204916400000002,"Postal":1160,"City":"Vienna","NumHouseholds":1,"NumPeople":2,"NumParcelsToday_1":1,"TotalParcelWeightKG_1":0.040000000000000001}},{"type":"Feature","id":116,"geometry":{"type":"Point","coordinates":[16.33428463000007,48.204178950000028]},"properties":{"OBJECTID":116,"SOURCE_ID":19862,"TotalParcelWeightKG":4.9199999999999999,"NumParcelsToday":1,"ZONE_ID":32,"Join_Count":1,"District":16,"Address":"Gablenzgasse 14, 1160","Longitude":16.334284629999999,"Latitude":48.204178949999999,"Postal":1160,"City":"Vienna","NumHouseholds":1,"NumPeople":3,"NumParcelsToday_1":1,"TotalParcelWeightKG_1":4.9199999999999999}},{"type":"Feature","id":117,"geometry":{"type":"Point","coordinates":[16.337335170000074,48.209697890000029]},"properties":{"OBJECTID":117,"SOURCE_ID":19926,"TotalParcelWeightKG":2.6600000000000001,"NumParcelsToday":2,"ZONE_ID":32,"Join_Count":1,"District":16,"Address":"Grundsteingasse 10, 1160","Longitude":16.337335169999999,"Latitude":48.209697890000001,"Postal":1160,"City":"Vienna","NumHouseholds":2,"NumPeople":4,"NumParcelsToday_1":2,"TotalParcelWeightKG_1":2.6600000000000001}},{"type":"Feature","id":118,"geometry":{"type":"Point","coordinates":[16.336126390000061,48.209989180000036]},"properties":{"OBJECTID":118,"SOURCE_ID":19927,"TotalParcelWeightKG":0.28000000000000003,"NumParcelsToday":1,"ZONE_ID":32,"Join_Count":1,"District":16,"Address":"Grundsteingasse 22/1, 1160","Longitude":16.33612639,"Latitude":48.209989180000001,"Postal":1160,"City":"Vienna","NumHouseholds":1,"NumPeople":4,"NumParcelsToday_1":1,"TotalParcelWeightKG_1":0.28000000000000003}},{"type":"Feature","id":119,"geometry":{"type":"Point","coordinates":[16.335609190000071,48.210110230000055]},"properties":{"OBJECTID":119,"SOURCE_ID":19928,"TotalParcelWeightKG":4.2800000000000002,"NumParcelsToday":1,"ZONE_ID":32,"Join_Count":1,"District":16,"Address":"Grundsteingasse 26, 1160","Longitude":16.33560919,"Latitude":48.210110229999998,"Postal":1160,"City":"Vienna","NumHouseholds":1,"NumPeople":3,"NumParcelsToday_1":1,"TotalParcelWeightKG_1":4.2800000000000002}},{"type":"Feature","id":120,"geometry":{"type":"Point","coordinates":[16.336084950000043,48.207403920000047]},"properties":{"OBJECTID":120,"SOURCE_ID":19995,"TotalParcelWeightKG":1.9399999999999999,"NumParcelsToday":1,"ZONE_ID":32,"Join_Count":1,"District":16,"Address":"Hasnerstraße 7, 1160","Longitude":16.33608495,"Latitude":48.207403919999997,"Postal":1160,"City":"Vienna","NumHouseholds":1,"NumPeople":2,"NumParcelsToday_1":1,"TotalParcelWeightKG_1":1.9399999999999999}},{"type":"Feature","id":121,"geometry":{"type":"Point","coordinates":[16.336218010000039,48.207798990000072]},"properties":{"OBJECTID":121,"SOURCE_ID":19997,"TotalParcelWeightKG":4.9100000000000001,"NumParcelsToday":1,"ZONE_ID":32,"Join_Count":1,"District":16,"Address":"Hasnerstraße 8, 1160","Longitude":16.33621801,"Latitude":48.207798990000001,"Postal":1160,"City":"Vienna","NumHouseholds":1,"NumPeople":1,"NumParcelsToday_1":1,"TotalParcelWeightKG_1":4.9100000000000001}},{"type":"Feature","id":122,"geometry":{"type":"Point","coordinates":[16.336044500000071,48.205025830000068]},"properties":{"OBJECTID":122,"SOURCE_ID":20075,"TotalParcelWeightKG":17.149999999999999,"NumParcelsToday":1,"ZONE_ID":32,"Join_Count":1,"District":16,"Address":"Hippgasse 10 Hoftrakt, 1160","Longitude":16.3360445,"Latitude":48.205025829999997,"Postal":1160,"City":"Vienna","NumHouseholds":1,"NumPeople":5,"NumParcelsToday_1":1,"TotalParcelWeightKG_1":17.149999999999999}},{"type":"Feature","id":123,"geometry":{"type":"Point","coordinates":[16.335804580000058,48.205025490000025]},"properties":{"OBJECTID":123,"SOURCE_ID":20076,"TotalParcelWeightKG":1.8500000000000001,"NumParcelsToday":1,"ZONE_ID":32,"Join_Count":1,"District":16,"Address":"Hippgasse 10, 1160","Longitude":16.335804580000001,"Latitude":48.205025489999997,"Postal":1160,"City":"Vienna","NumHouseholds":1,"NumPeople":2,"NumParcelsToday_1":1,"TotalParcelWeightKG_1":1.8500000000000001}},{"type":"Feature","id":124,"geometry":{"type":"Point","coordinates":[16.335839010000029,48.20667646000004]},"properties":{"OBJECTID":124,"SOURCE_ID":20077,"TotalParcelWeightKG":0.34000000000000002,"NumParcelsToday":1,"ZONE_ID":32,"Join_Count":1,"District":16,"Address":"Hippgasse 22, 1160","Longitude":16.335839010000001,"Latitude":48.206676459999997,"Postal":1160,"City":"Vienna","NumHouseholds":1,"NumPeople":4,"NumParcelsToday_1":1,"TotalParcelWeightKG_1":0.34000000000000002}},{"type":"Feature","id":125,"geometry":{"type":"Point","coordinates":[16.336301300000059,48.208037130000037]},"properties":{"OBJECTID":125,"SOURCE_ID":20078,"TotalParcelWeightKG":1.1200000000000001,"NumParcelsToday":1,"ZONE_ID":32,"Join_Count":1,"District":16,"Address":"Hippgasse 36, 1160","Longitude":16.336301299999999,"Latitude":48.208037130000001,"Postal":1160,"City":"Vienna","NumHouseholds":1,"NumPeople":4,"NumParcelsToday_1":1,"TotalParcelWeightKG_1":1.1200000000000001}},{"type":"Feature","id":126,"geometry":{"type":"Point","coordinates":[16.335536990000037,48.204658480000035]},"properties":{"OBJECTID":126,"SOURCE_ID":20079,"TotalParcelWeightKG":0.79000000000000004,"NumParcelsToday":2,"ZONE_ID":32,"Join_Count":1,"District":16,"Address":"Hippgasse 5, 1160","Longitude":16.335536990000001,"Latitude":48.204658479999999,"Postal":1160,"City":"Vienna","NumHouseholds":2,"NumPeople":3,"NumParcelsToday_1":2,"TotalParcelWeightKG_1":0.79000000000000004}},{"type":"Feature","id":127,"geometry":{"type":"Point","coordinates":[16.33552246000005,48.204803180000056]},"properties":{"OBJECTID":127,"SOURCE_ID":20080,"TotalParcelWeightKG":0.95999999999999996,"NumParcelsToday":1,"ZONE_ID":32,"Join_Count":1,"District":16,"Address":"Hippgasse 7, 1160","Longitude":16.33552246,"Latitude":48.204803179999999,"Postal":1160,"City":"Vienna","NumHouseholds":1,"NumPeople":1,"NumParcelsToday_1":1,"TotalParcelWeightKG_1":0.95999999999999996}},{"type":"Feature","id":128,"geometry":{"type":"Point","coordinates":[16.336410530000023,48.20597274000005]},"properties":{"OBJECTID":128,"SOURCE_ID":20207,"TotalParcelWeightKG":0.93999999999999995,"NumParcelsToday":1,"ZONE_ID":32,"Join_Count":1,"District":16,"Address":"Koppstraße 1, 1160","Longitude":16.336410529999998,"Latitude":48.20597274,"Postal":1160,"City":"Vienna","NumHouseholds":1,"NumPeople":6,"NumParcelsToday_1":1,"TotalParcelWeightKG_1":0.93999999999999995}},{"type":"Feature","id":129,"geometry":{"type":"Point","coordinates":[16.335702060000074,48.20607418000003]},"properties":{"OBJECTID":129,"SOURCE_ID":20214,"TotalParcelWeightKG":0.26000000000000001,"NumParcelsToday":1,"ZONE_ID":32,"Join_Count":1,"District":16,"Address":"Koppstraße 3, 1160","Longitude":16.335702059999999,"Latitude":48.206074180000002,"Postal":1160,"City":"Vienna","NumHouseholds":1,"NumPeople":5,"NumParcelsToday_1":1,"TotalParcelWeightKG_1":0.26000000000000001}},{"type":"Feature","id":130,"geometry":{"type":"Point","coordinates":[16.335265070000048,48.206524200000047]},"properties":{"OBJECTID":130,"SOURCE_ID":20220,"TotalParcelWeightKG":0.66000000000000003,"NumParcelsToday":1,"ZONE_ID":32,"Join_Count":1,"District":16,"Address":"Koppstraße 6/1, 1160","Longitude":16.335265069999998,"Latitude":48.206524199999997,"Postal":1160,"City":"Vienna","NumHouseholds":1,"NumPeople":2,"NumParcelsToday_1":1,"TotalParcelWeightKG_1":0.66000000000000003}},{"type":"Feature","id":131,"geometry":{"type":"Point","coordinates":[16.337315740000065,48.207611560000032]},"properties":{"OBJECTID":131,"SOURCE_ID":20264,"TotalParcelWeightKG":0.35999999999999999,"NumParcelsToday":1,"ZONE_ID":32,"Join_Count":1,"District":16,"Address":"Lerchenfelder Gürtel 29, 1160","Longitude":16.337315740000001,"Latitude":48.207611559999997,"Postal":1160,"City":"Vienna","NumHouseholds":1,"NumPeople":1,"NumParcelsToday_1":1,"TotalParcelWeightKG_1":0.35999999999999999}},{"type":"Feature","id":132,"geometry":{"type":"Point","coordinates":[16.334519710000052,48.206797410000036]},"properties":{"OBJECTID":132,"SOURCE_ID":20349,"TotalParcelWeightKG":0.79000000000000004,"NumParcelsToday":1,"ZONE_ID":32,"Join_Count":2,"District":16,"Address":"Brunnengasse 13, 1160","Longitude":16.334519709999999,"Latitude":48.20679741,"Postal":1160,"City":"Vienna","NumHouseholds":1,"NumPeople":3,"NumParcelsToday_1":1,"TotalParcelWeightKG_1":1.5800000000000001}},{"type":"Feature","id":133,"geometry":{"type":"Point","coordinates":[16.337179330000026,48.208169590000068]},"properties":{"OBJECTID":133,"SOURCE_ID":20391,"TotalParcelWeightKG":0.11,"NumParcelsToday":1,"ZONE_ID":32,"Join_Count":1,"District":16,"Address":"Menzelgasse 4, 1160","Longitude":16.337179330000001,"Latitude":48.208169589999997,"Postal":1160,"City":"Vienna","NumHouseholds":1,"NumPeople":2,"NumParcelsToday_1":1,"TotalParcelWeightKG_1":0.11}},{"type":"Feature","id":134,"geometry":{"type":"Point","coordinates":[16.336707620000027,48.208240910000029]},"properties":{"OBJECTID":134,"SOURCE_ID":20392,"TotalParcelWeightKG":0.34000000000000002,"NumParcelsToday":1,"ZONE_ID":32,"Join_Count":1,"District":16,"Address":"Menzelgasse 8, 1160","Longitude":16.336707619999999,"Latitude":48.208240910000001,"Postal":1160,"City":"Vienna","NumHouseholds":1,"NumPeople":1,"NumParcelsToday_1":1,"TotalParcelWeightKG_1":0.34000000000000002}},{"type":"Feature","id":135,"geometry":{"type":"Point","coordinates":[16.333643170000073,48.204291710000064]},"properties":{"OBJECTID":135,"SOURCE_ID":20444,"TotalParcelWeightKG":0.44,"NumParcelsToday":1,"ZONE_ID":32,"Join_Count":1,"District":16,"Address":"Neumayrgasse 1, 1160","Longitude":16.333643169999998,"Latitude":48.20429171,"Postal":1160,"City":"Vienna","NumHouseholds":1,"NumPeople":7,"NumParcelsToday_1":1,"TotalParcelWeightKG_1":0.44}},{"type":"Feature","id":136,"geometry":{"type":"Point","coordinates":[16.33388382000004,48.204946870000072]},"properties":{"OBJECTID":136,"SOURCE_ID":20445,"TotalParcelWeightKG":16.030000000000001,"NumParcelsToday":3,"ZONE_ID":32,"Join_Count":1,"District":16,"Address":"Neumayrgasse 10, 1160","Longitude":16.33388382,"Latitude":48.204946870000001,"Postal":1160,"City":"Vienna","NumHouseholds":3,"NumPeople":9,"NumParcelsToday_1":3,"TotalParcelWeightKG_1":16.030000000000001}},{"type":"Feature","id":137,"geometry":{"type":"Point","coordinates":[16.336435440000059,48.208989410000072]},"properties":{"OBJECTID":137,"SOURCE_ID":20983,"TotalParcelWeightKG":0.68000000000000005,"NumParcelsToday":1,"ZONE_ID":32,"Join_Count":1,"District":16,"Address":"Thaliastraße 14, 1160","Longitude":16.336435439999999,"Latitude":48.208989410000001,"Postal":1160,"City":"Vienna","NumHouseholds":1,"NumPeople":1,"NumParcelsToday_1":1,"TotalParcelWeightKG_1":0.68000000000000005}},{"type":"Feature","id":138,"geometry":{"type":"Point","coordinates":[16.335508960000027,48.208773670000028]},"properties":{"OBJECTID":138,"SOURCE_ID":20984,"TotalParcelWeightKG":1.3100000000000001,"NumParcelsToday":1,"ZONE_ID":32,"Join_Count":1,"District":16,"Address":"Thaliastraße 15, 1160","Longitude":16.335508959999999,"Latitude":48.208773669999999,"Postal":1160,"City":"Vienna","NumHouseholds":1,"NumPeople":3,"NumParcelsToday_1":1,"TotalParcelWeightKG_1":1.3100000000000001}},{"type":"Feature","id":139,"geometry":{"type":"Point","coordinates":[16.336026160000074,48.209053260000076]},"properties":{"OBJECTID":139,"SOURCE_ID":20991,"TotalParcelWeightKG":0.45000000000000001,"NumParcelsToday":1,"ZONE_ID":32,"Join_Count":1,"District":16,"Address":"Thaliastraße 18, 1160","Longitude":16.336026159999999,"Latitude":48.209053259999997,"Postal":1160,"City":"Vienna","NumHouseholds":1,"NumPeople":1,"NumParcelsToday_1":1,"TotalParcelWeightKG_1":0.45000000000000001}},{"type":"Feature","id":140,"geometry":{"type":"Point","coordinates":[16.335630590000051,48.209234030000061]},"properties":{"OBJECTID":140,"SOURCE_ID":20992,"TotalParcelWeightKG":0.96999999999999997,"NumParcelsToday":1,"ZONE_ID":32,"Join_Count":1,"District":16,"Address":"Thaliastraße 22, 1160","Longitude":16.335630590000001,"Latitude":48.209234029999998,"Postal":1160,"City":"Vienna","NumHouseholds":1,"NumPeople":4,"NumParcelsToday_1":1,"TotalParcelWeightKG_1":0.96999999999999997}},{"type":"Feature","id":141,"geometry":{"type":"Point","coordinates":[16.336859120000042,48.208681750000039]},"properties":{"OBJECTID":141,"SOURCE_ID":21004,"TotalParcelWeightKG":0.71999999999999997,"NumParcelsToday":1,"ZONE_ID":32,"Join_Count":1,"District":16,"Address":"Thaliastraße 7, 1160","Longitude":16.33685912,"Latitude":48.208681749999997,"Postal":1160,"City":"Vienna","NumHouseholds":1,"NumPeople":3,"NumParcelsToday_1":1,"TotalParcelWeightKG_1":0.71999999999999997}}]
}